country,points,price,title,variety,winery,City,Lat,Lng
Portugal,87,15.0,Quinta dos Avidagos 2011 Avidagos Red (Douro),Portuguese Red,Quinta dos Avidagos,peso da regua,41.18,-7.76
US,87,13.0,St. Julian 2013 Reserve Late Harvest Riesling (Lake Michigan Shore),Riesling,St. Julian,portage,42.21,-85.89
US,87,65.0,Sweet Cheeks 2012 Vintner's Reserve Wild Child Block Pinot Noir (Willamette Valley),Pinot Noir,Sweet Cheeks,eugene,43.96,-123.28
Spain,87,15.0,Tandem 2011 Ars In Vitro Tempranillo-Merlot (Navarra),Tempranillo-Merlot,Tandem,baranain,42.67,-1.95
Italy,87,16.0,Terre di Giurfo 2013 Belsito Frappato (Vittoria),Frappato,Terre di Giurfo,grammichele,37.11,14.63
France,87,24.0,Trimbach 2012 Gewurztraminer (Alsace),Gewürztraminer,Trimbach,colmar,48.19,7.33
Germany,87,12.0,Heinz Eifel 2013 Shine Gewürztraminer (Rheinhessen),Gewürztraminer,Heinz Eifel,wittlich,49.83,6.9
France,87,27.0,Jean-Baptiste Adam 2012 Les Natures Pinot Gris (Alsace),Pinot Gris,Jean-Baptiste Adam,colmar,48.13,7.28
US,87,19.0,Kirkland Signature 2011 Mountain Cuvée Cabernet Sauvignon (Napa Valley),Cabernet Sauvignon,Kirkland Signature,whitehall,39.94,-82.89
France,87,30.0,Leon Beyer 2012 Gewurztraminer (Alsace),Gewürztraminer,Leon Beyer,colmar,48.04,7.31
US,87,34.0,Louis M. Martini 2012 Cabernet Sauvignon (Alexander Valley),Cabernet Sauvignon,Louis M. Martini,sonoma,38.49,-122.45
Germany,87,24.0,Richard Böcking 2013 Devon Riesling (Mosel),Riesling,Richard Böcking,morbach,49.95,7.11
Argentina,87,30.0,Felix Lavaque 2010 Felix Malbec (Cafayate),Malbec,Felix Lavaque,tucuman,-26.09,-65.98
Spain,87,28.0,Pradorey 2010 Vendimia Seleccionada Finca Valdelayegua Single Vineyard Crianza  (Ribera del Duero),Tempranillo Blend,Pradorey,aranda de duero,41.7,-3.79
US,87,32.0,Quiévremont 2012 Meritage (Virginia),Meritage,Quiévremont,front royal,38.69,-78.21
Italy,87,19.0,Baglio di Pianetto 2007 Ficiligno White (Sicilia),White Blend,Baglio di Pianetto,belmonte mezzagno,37.99,13.35
US,87,22.0,Bianchi 2011 Signature Selection Merlot (Paso Robles),Merlot,Bianchi,atascadero,35.65,-120.58
Italy,87,35.0,Canicattì 2009 Aynat Nero d'Avola (Sicilia),Nero d'Avola,Canicattì,naro,37.36,13.78
US,87,69.0,Castello di Amorosa 2011 King Ridge Vineyard Pinot Noir (Sonoma Coast),Pinot Noir,Castello di Amorosa,santa rosa,38.56,-122.54
US,86,16.0,Clarksburg Wine Company 2010 Chenin Blanc (Clarksburg),Chenin Blanc,Clarksburg Wine Company,florin,38.42,-121.53
US,86,50.0,Envolve 2010 Puma Springs Vineyard Red (Dry Creek Valley),Red Blend,Envolve,sonoma,38.29,-122.46
US,86,50.0,Erath 2010 Hyland Pinot Noir (McMinnville),Pinot Noir,Erath,newberg,45.28,-123.06
Chile,86,15.0,Estampa 2011 Estate Viognier-Chardonnay (Colchagua Valley),Viognier-Chardonnay,Estampa,santa cruz,-34.58,-71.38
Italy,86,21.0,Feudi del Pisciotto 2010 Missoni Cabernet Sauvignon (Sicilia),Cabernet Sauvignon,Feudi del Pisciotto,niscemi,37.12,14.41
Italy,86,11.0,Feudi di San Marzano 2011 I Tratturi Primitivo (Puglia),Primitivo,Feudi di San Marzano,sava,40.46,17.5
Italy,86,12.0,Feudo di Santa Tresa 2011 Purato Made With Organic Grapes Nero d'Avola (Sicilia),Nero d'Avola,Feudo di Santa Tresa,vittoria,37.01,14.52
Italy,86,17.0,Feudo Montoni 2011 Catarratto (Sicilia),Catarratto,Feudo Montoni,mussomeli,37.67,13.73
US,86,22.0,Hawkins Cellars 2009 Pinot Noir (Willamette Valley),Pinot Noir,Hawkins Cellars,newberg,45.28,-123.01
France,86,9.0,Henry Fessy 2012 Nouveau  (Beaujolais),Gamay,Henry Fessy,villefranche-sur-saone,46.12,4.7
US,86,14.0,Robert Hall 2011 Sauvignon Blanc (Paso Robles),Sauvignon Blanc,Robert Hall,atascadero,35.64,-120.63
US,86,40.0,Tarara 2010 #SocialSecret Red (Virginia),Red Blend,Tarara,leesburg,39.23,-77.48
Italy,86,13.0,Tasca d'Almerita 2011 Sallier de la Tour Inzolia (Sicilia),Inzolia,Tasca d'Almerita,mussomeli,37.72,13.83
US,86,16.0,Trump 2011 Sauvignon Blanc (Monticello),Sauvignon Blanc,Trump,charlottesville,37.94,-78.5
France,86,14.0,Vignerons de Bel Air 2011 Eté Indien  (Brouilly),Gamay,Vignerons de Bel Air,villefranche-sur-saone,46.12,4.71
Chile,85,22.0,Casa Silva 2008 Gran Reserva Petit Verdot (Colchagua Valley),Petit Verdot,Casa Silva,san vicente,-34.54,-70.97
Italy,85,14.0,Cantine di Dolianova 2010 Dolia  (Monica di Sardegna),Monica,Cantine di Dolianova,sinnai,39.36,9.16
France,85,15.0,Château de Sours 2011 La Fleur d'Amélie  (Bordeaux Blanc),Bordeaux-style White Blend,Château de Sours,libourne,44.82,-0.27
US,85,30.0,RustRidge 2010 Estate Bottled Chardonnay (Napa Valley),Chardonnay,RustRidge,napa,38.53,-122.32
US,86,55.0,Mellisoni 2014 Malbec (Columbia Valley (WA)),Malbec,Mellisoni,east wenatchee bench,47.84,-120.07
Italy,86,17.0,Podere dal Nespoli 2015 Prugneto Sangiovese (Romagna),Sangiovese,Podere dal Nespoli,bertinoro,44.04,11.99
US,86,25.0,Ram 2014 Alder Ridge Vineyard Cabernet Franc (Columbia Valley (WA)),Cabernet Franc,Ram,sonoma,38.17,-122.45
France,86,58.0,Roland Champion NV Brut Rosé  (Champagne),Champagne Blend,Roland Champion,epernay,49.03,4.01
US,86,26.0,Sevtap 2015 Golden Horn Sauvignon Blanc (Santa Ynez Valley),Sauvignon Blanc,Sevtap,lompoc,34.6,-120.14
France,86,24.0,Simonnet-Febvre 2015  Chablis,Chardonnay,Simonnet-Febvre,auxerre,47.76,3.69
France,86,15.0,Vignerons des Terres Secrètes 2015  Mâcon-Milly Lamartine,Chardonnay,Vignerons des Terres Secrètes,macon,46.32,4.75
US,86,46.0,Basel Cellars 2013 Inspired Red (Columbia Valley (WA)),Bordeaux-style Red Blend,Basel Cellars,college place,46.02,-118.4
France,86,55.0,Collet NV Brut Rosé  (Champagne),Champagne Blend,Collet,nice,43.72,7.21
US,86,12.0,Drumheller 2014 Chardonnay (Columbia Valley (WA)),Chardonnay,Drumheller,drumheller,51.43,-112.65
US,86,40.0,Eco Terreno 2013 Old Vine Cabernet Sauvignon (Alexander Valley),Cabernet Sauvignon,Eco Terreno,sonoma,38.28,-122.46
Italy,86,32.0,Grifalco 2013 Daginestra  (Aglianico del Vulture),Aglianico,Grifalco,venosa,40.97,15.85
US,86,75.0,Hindsight 2013 Bella Vetta Vineyard Cabernet Sauvignon (Howell Mountain),Cabernet Sauvignon,Hindsight,santa rosa,38.6,-122.58
Germany,86,9.0,Schmitt Söhne 2015 Riesling (Rheinhessen),Riesling,Schmitt Söhne,trier,49.81,6.77
Australia,86,18.0,Yalumba 2016 Made With Organic Grapes Chardonnay (South Australia),Chardonnay,Yalumba,gawler,-34.51,139.06
US,86,25.0,Z'IVO 2015 Rosé of Pinot Noir (Eola-Amity Hills),Pinot Noir,Z'IVO,keizer,45.13,-123.12
Chile,86,12.0,Aresti 2014 Special Release Reserva Carmenère (Rapel Valley),Carmenère,Aresti,molina,-35.15,-71.3
France,86,11.0,Lionel Osmin & Cie 2016 La Réserve Petit Manseng (Vin de France),Petit Manseng,Lionel Osmin & Cie,pau,43.33,-0.31
Australia,86,20.0,Mitolo 2016 Jester Sangiovese Rosé (McLaren Vale),Rosé,Mitolo,adelaide,-35.23,138.57
US,86,24.0,Napa Cellars 2014 Classic Zinfandel (Napa Valley),Zinfandel,Napa Cellars,sonoma,38.42,-122.39
US,86,20.0,Palencia 2016 Albariño (Ancient Lakes),Albariño,Palencia,walla walla,46.09,-118.26
US,86,55.0,Passaggio 2014 Blau Vineyards Merlot (Knights Valley),Merlot,Passaggio,sonoma,38.29,-122.46
Italy,86,29.0,Poggio Alloro 2014 Le Mandorle Riserva  (Vernaccia di San Gimignano),Vernaccia,Poggio Alloro,certaldo,43.49,11.07
Italy,88,19.0,Fattoria Sardi 2015 Rosato (Toscana),Rosato,Fattoria Sardi,lucca,43.88,10.5
US,88,23.0,Ferrari-Carano 2014 Siena Red (Sonoma County),Red Blend,Ferrari-Carano,healdsburg,38.71,-122.98
US,88,55.0,Franciscan 2013 Magnificat Meritage (Napa Valley),Meritage,Franciscan,sonoma,38.47,-122.43
Austria,88,12.0,Fuchs 2015 Grüner Veltliner (Burgenland),Grüner Veltliner,Fuchs,ruse,46.66,15.52
US,88,22.0,Gård 2014 Grand Klasse Reserve Lawrence Vineyards Viognier (Columbia Valley (WA)),Viognier,Gård,woodinville,47.77,-122.15
US,88,20.0,Heron Hill 2015 Ingle Vineyard Riesling (Finger Lakes),Riesling,Heron Hill,corning,42.45,-77.2
Italy,88,30.0,Serpaia di Endrizzi 2010 Dono Riserva  (Morellino di Scansano),Sangiovese,Serpaia di Endrizzi,trento,46.2,11.14
US,88,75.0,Soquel Vineyards 2013 Intreccio Library Selection Red (Napa Valley),Bordeaux-style Red Blend,Soquel Vineyards,soquel,37.03,-121.93
US,88,18.0,Ventosa 2015 Pinot Gris (Finger Lakes),Pinot Gris,Ventosa,geneva,42.86,-76.94
US,87,20.0,Lamoreaux Landing 2014 Red Oak Vineyard Riesling (Finger Lakes),Riesling,Lamoreaux Landing,geneva,42.58,-76.86
Chile,87,18.0,Leyda 2015 Single Vineyard Falaris Hill Chardonnay (Leyda Valley),Chardonnay,Leyda,san antonio,-33.69,-71.48
Italy,87,16.0,Madonna Alta 2014 Nativo Red (Toscana),Red Blend,Madonna Alta,foligno,42.89,12.63
Italy,87,14.0,Marchesi Antinori 2015 Villa Antinori White (Toscana),White Blend,Marchesi Antinori,impruneta,43.61,11.19
Italy,87,30.0,Marchesi de' Frescobaldi 2014 Castiglioni Red (Toscana),Red Blend,Marchesi de' Frescobaldi,roccastrada,43.04,11.41
US,87,26.0,Martin Ranch 2014 J.D. Hurley Zinfandel (Santa Clara Valley),Zinfandel,Martin Ranch,morgan hill,37.04,-121.71
Italy,87,30.0,Ornellaia 2014 Le Volte Red (Toscana),Red Blend,Ornellaia,cecina,43.21,10.62
France,87,23.0,Pardon et Fils 2015 Les Quartelets  (Brouilly),Gamay,Pardon et Fils,villefranche-sur-saone,46.15,4.6
US,87,85.0,Piña 2013 Wolff Vineyard Cabernet Sauvignon (Yountville),Cabernet Sauvignon,Piña,sonoma,38.47,-122.38
Italy,87,15.0,Podere Ciona 2014 Semifonte Red (Toscana),Red Blend,Podere Ciona,montevarchi,43.48,11.46
US,87,44.0,Rideau 2014 Estate Syrah,Syrah,Rideau,isla vista,34.63,-120.11
Italy,87,80.0,Tenuta Forconi 2013 Toscano Red (Toscana),Red Blend,Tenuta Forconi,montelupo fiorentino,43.7,10.99
Italy,92,70.0,Ceretto 2003 Bricco Rocche Prapó  (Barolo),Nebbiolo,Ceretto,alba,44.67,8.0
US,92,36.0,Matrix 2007 Stuhlmuller Vineyard Chardonnay (Alexander Valley),Chardonnay,Matrix,healdsburg,38.57,-122.88
US,92,39.0,Mauritson 2007 Rockpile Cemetary Vineyard Zinfandel (Rockpile),Zinfandel,Mauritson,healdsburg,38.65,-122.91
Australia,92,40.0,Henry's Drive Vignerons 2006 Parson's Flat Shiraz-Cabernet Sauvignon (Padthaway),Shiraz-Cabernet Sauvignon,Henry's Drive Vignerons,adelaide,-34.98,138.73
US,92,45.0,Silverado 2006 Cabernet Sauvignon (Napa Valley),Cabernet Sauvignon,Silverado,napa,38.41,-122.34
South Africa,91,45.0,Le Riche 2003 Cabernet Sauvignon Reserve Cabernet Sauvignon (Stellenbosch),Cabernet Sauvignon,Le Riche,somerset west,-34.01,18.8
France,91,48.0,Pierre Sparr 2007 Vendages Tardives Gewurztraminer (Alsace),Gewürztraminer,Pierre Sparr,colmar,48.16,7.33
France,91,17.0,Kuentz-Bas 2008 Pinot Blanc (Alsace),Pinot Blanc,Kuentz-Bas,colmar,48.03,7.28
South Africa,91,25.0,Camberley 2004 Philosophers' Stone Red (Stellenbosch),Bordeaux-style Red Blend,Camberley,stellenbosch,-33.92,18.93
South Africa,91,30.0,Delheim 2001 Grand Reserve Cabernet Sauvignon (Simonsberg-Stellenbosch),Cabernet Sauvignon,Delheim,stellenbosch,-33.87,18.89
Italy,91,68.0,Poderi Luigi Einaudi 2003  Barolo,Nebbiolo,Poderi Luigi Einaudi,mondovi,44.52,7.95
US,91,78.0,Clark-Clauden 2007 Cabernet Sauvignon (Napa Valley),Cabernet Sauvignon,Clark-Clauden,sonoma,38.5,-122.47
Italy,91,60.0,Giacomo Ascheri 2001 Sorano  (Barolo),Nebbiolo,Giacomo Ascheri,bra,44.69,7.85
France,91,50.0,Lassègue 2003  Saint-Émilion,Bordeaux-style Red Blend,Lassègue,libourne,44.88,-0.13
Italy,90,26.0,Poderi Colla 2005 Costa Bruna  (Barbera d'Alba),Barbera,Poderi Colla,alba,44.67,8.07
France,90,84.0,Domaine Zind-Humbrecht 2007 Hunawihr Clos Windsbuhl Pinot Gris (Alsace),Pinot Gris,Domaine Zind-Humbrecht,colmar,48.08,7.3
US,91,85.0,Terra Valentine 2013 K Block Cabernet Sauvignon (Spring Mountain District),Cabernet Sauvignon,Terra Valentine,santa rosa,38.52,-122.55
US,91,64.0,Testarossa 2013 Guidotti Vineyard Pinot Noir (Santa Lucia Highlands),Pinot Noir,Testarossa,los gatos,37.21,-121.98
US,91,68.0,Vincent Vineyards 2010 Family Reserve Cabernet Sauvignon (Santa Ynez Valley),Cabernet Sauvignon,Vincent Vineyards,isla vista,34.65,-120.09
Germany,91,16.0,Weingut Liebfrauenstift 2014 Dry Riesling (Rheinhessen),Riesling,Weingut Liebfrauenstift,worms,49.64,8.37
US,91,35.0,Wrath 2013 Destruction Level Red (Monterey),Rhône-style Red Blend,Wrath,soledad,36.41,-121.39
Portugal,91,30.0,Herdade Grande 2014 Gerações Colheita Seleccionada Branco White (Alentejano),Portuguese White,Herdade Grande,beja,38.19,-7.84
US,91,55.0,Albatross Ridge 2012 Estate Reserve Pinot Noir (Carmel Valley),Pinot Noir,Albatross Ridge,monterey,36.56,-121.92
US,91,46.0,Alta Colina 2012 Old 900 Syrah (Paso Robles),Syrah,Alta Colina,atascadero,35.65,-120.74
Spain,91,50.0,Marques de Griñon 2010 Single Vineyard Estate Bottled Graciano (Dominio de Valdepusa),Graciano,Marques de Griñon,talavera de la reina,39.86,-4.61
US,91,36.0,Big Basin 2013 Syrah (Santa Cruz Mountains),Syrah,Big Basin,saratoga,37.18,-122.16
Portugal,91,26.0,Casa Santa Vitória 2013 Grande Reserva Tinto Red (Alentejano),Portuguese Red,Casa Santa Vitória,aljustrel,37.89,-8.02
Italy,91,38.0,Castello di Gabbiano 2012 Bellezza Gran Selezione  (Chianti Classico),Sangiovese,Castello di Gabbiano,impruneta,43.63,11.26
France,91,35.0,Château Vincens 2012 Malbec (Cahors),Malbec,Château Vincens,cahors,44.46,1.28
US,91,35.0,Chronic Cellars 2013 Mr. Nibbles Red (Paso Robles),Red Blend,Chronic Cellars,atascadero,35.67,-120.73
Chile,91,29.0,Conde de Velázquez 2012 Condesa Real Premium Blend Red (Aconcagua Valley),Red Blend,Conde de Velázquez,san bernardo,-33.53,-70.71
Chile,91,32.0,Cono Sur 2012 20 Barrels Cabernet Sauvignon (Maipo Valley),Cabernet Sauvignon,Cono Sur,santiago,-33.42,-70.61
France,91,25.0,Domaine Berthoumieu 2013 Charles de Batz Tannat-Cabernet (Madiran),Tannat-Cabernet,Domaine Berthoumieu,pau,43.61,-0.12
US,91,95.0,Duckhorn 2012 Rector Creek Vineyard Merlot (Napa Valley),Merlot,Duckhorn,sonoma,38.53,-122.49
US,91,44.0,Dutton-Goldfield 2014 Dutton Ranch Pinot Noir (Russian River Valley),Pinot Noir,Dutton-Goldfield,windsor,38.44,-122.86
Germany,91,30.0,Fritz Haag 2014 Brauneberger Feinherb Riesling (Mosel),Riesling,Fritz Haag,wittlich,49.91,6.99
Chile,91,20.0,G7 2012 The 7th Generation Gran Reserva Estate Bottled Cabernet Sauvignon (Loncomilla Valley),Cabernet Sauvignon,G7,santiago,-33.42,-70.6
US,91,38.0,Le Cadeau 2014 Pinot Noir (Willamette Valley),Pinot Noir,Le Cadeau,newberg,45.27,-123.02
New Zealand,88,19.0,Stoneleigh 2008 Sauvignon Blanc (Marlborough),Sauvignon Blanc,Stoneleigh,seddon,-41.51,173.96
Italy,88,25.0,Tenuta Peter Sölva & Söhne 2007 De Silva Sauvignon (Alto Adige),Sauvignon,Tenuta Peter Sölva & Söhne,appiano,46.41,11.24
Chile,88,50.0,TerraMater 2006 Unusual Cabernet-Shiraz-Zinfandel Red (Maipo Valley),Red Blend,TerraMater,santiago,-33.42,-70.6
Italy,88,22.0,Isole e Olena 2005  Chianti Classico,Sangiovese,Isole e Olena,poggibonsi,43.5,11.24
US,88,25.0,Kenwood 2005 Jack London Vineyard Syrah (Sonoma Valley),Syrah,Kenwood,sonoma,38.41,-122.54
France,88,27.0,La Chablisienne 2006 Les Vénérables Vieilles Vignes  (Chablis),Chardonnay,La Chablisienne,auxerre,47.81,3.8
US,88,23.0,Manzoni 2006 Lucia Highland Vineyard Chardonnay (Santa Lucia Highlands),Chardonnay,Manzoni,monterey,36.55,-121.92
US,88,36.0,McIntyre Vineyards 2006 Mission Ranch Pinot Noir (Arroyo Seco),Pinot Noir,McIntyre Vineyards,monterey,36.54,-121.91
Argentina,88,12.0,Alamos 2007 Torrontés (Salta),Torrontés,Alamos,lujan,-33.17,-68.92
US,88,35.0,Anaba 2007 Chardonnay (Sonoma Coast),Chardonnay,Anaba,sonoma,38.24,-122.46
Chile,88,15.0,Apaltagua 2007 Envero Gran Reserva Carmenère (Colchagua Valley),Carmenère,Apaltagua,santa cruz,-34.62,-71.27
US,88,40.0,Harrington 2006 Wiley Vineyard Pinot Noir (Anderson Valley),Pinot Noir,Harrington,san francisco,37.75,-122.39
Italy,88,48.0,Abbazia Santa Anastasia 2003 Montenero Red (Sicilia),Red Blend,Abbazia Santa Anastasia,castelbuono,37.97,14.08
Chile,88,11.0,Viña Bisquertt 2007 Casa La Joya Reserve Merlot (Colchagua Valley),Merlot,Viña Bisquertt,santiago,-33.39,-70.62
Chile,87,11.0,Emiliana 2008 Natura Chardonnay (Casablanca Valley),Chardonnay,Emiliana,villa alemana,-33.36,-71.31
Italy,87,26.0,Fattoria Alois 2007 Campole Red (Campania),Red Blend,Fattoria Alois,capua,41.19,14.23
Italy,87,20.0,Aldegheri 2003 Le Pietre Santambrogio Red (Rosso del Veronese),Red Blend,Aldegheri,pescantina,45.52,10.83
France,87,35.0,Bertrand Ambroise 2006  St.-Romain,Chardonnay,Bertrand Ambroise,beaune,47.11,4.93
Italy,87,35.0,Carpineto 2003 Riserva  (Vino Nobile di Montepulciano),Prugnolo Gentile,Carpineto,figline valdarno,43.6,11.39
Italy,87,18.0,Cesani 2007 Pancole  (Vernaccia di San Gimignano),Vernaccia,Cesani,certaldo,43.51,11.0
South Africa,90,23.0,Spier 2014 21 Gables Chenin Blanc (Western Cape),Chenin Blanc,Spier,stellenbosch,-33.97,18.78
US,90,60.0,Sequum 2013 Four Soil Mélange Cabernet Sauvignon (Napa Valley),Cabernet Sauvignon,Sequum,sonoma,38.5,-122.46
US,90,28.0,Sierra Starr 2014 Rising Starr Estate Bottled Cabernet Franc (Nevada County),Cabernet Franc,Sierra Starr,grass valley,39.21,-121.09
Italy,90,62.0,Terlan 2014 Nova Domus Riserva White (Alto Adige),White Blend,Terlan,appiano,46.53,11.25
Israel,90,50.0,Yatir 2011 Syrah (Judean Hills),Syrah,Yatir,dimona,31.26,35.13
Portugal,90,28.0,Adega Cooperativa de Borba 2012 Montes Claros Garrafeira Red (Alentejo),Portuguese Red,Adega Cooperativa de Borba,borba,38.81,-7.46
US,90,30.0,J. Lohr 2014 Gesture G-S-M (Paso Robles),G-S-M,J. Lohr,atascadero,35.69,-120.64
US,90,32.0,Del Carlo Winery 2014 Home Ranch Teldeschi Vineyards Century Old Vine Zinfandel (Dry Creek Valley),Zinfandel,Del Carlo Winery,healdsburg,38.67,-122.94
South Africa,90,40.0,Delaire Graff 2013 Reserve White (Coastal Region),White Blend,Delaire Graff,stellenbosch,-33.92,18.92
France,90,16.0,Domaine St Pierre 2014 Red (Côtes du Rhône),Rhône-style Red Blend,Domaine St Pierre,saint-martin-de-crau,43.52,4.74
South Africa,90,20.0,Eikendal 2014 Chardonnay (Western Cape),Chardonnay,Eikendal,somerset west,-34.01,18.82
France,90,32.0,Famille Perrin 2013 Les Christins Red (Vacqueyras),Rhône-style Red Blend,Famille Perrin,orange,44.12,4.86
Spain,90,40.0,Matarromera 2015 Fermentado en Barrica Verdejo (Rueda),Verdejo,Matarromera,valladolid,41.64,-4.32
US,90,48.0,MCV 2014 1105 Red (Paso Robles),Red Blend,MCV,morro bay,35.37,-120.85
US,90,36.0,Mounts 2014 Verah Red (Dry Creek Valley),Rhône-style Red Blend,Mounts,healdsburg,38.66,-122.95
Israel,90,80.0,Or Haganuz 2014 French Blend Red (Galilee),Bordeaux-style Red Blend,Or Haganuz,jish,33.0,35.45
Italy,90,57.0,Podere Scopetone 2012  Brunello di Montalcino,Sangiovese,Podere Scopetone,arezzo,43.43,11.93
Portugal,90,20.0,Quinta de Foz de Arouce 2013 Red (Beira Atlantico),Portuguese Red,Quinta de Foz de Arouce,poiares,40.16,-8.28
US,90,20.0,Robert Mondavi 2015 Fumé Blanc (Napa Valley),Fumé Blanc,Robert Mondavi,sonoma,38.44,-122.41
Italy,90,40.0,St. Pauls 2014 Passion Riserva Pinot Bianco (Alto Adige),Pinot Bianco,St. Pauls,appiano,46.47,11.26
Argentina,90,22.0,Mendel 2014 Lunta Malbec (Luján de Cuyo),Malbec,Mendel,lujan,-33.03,-68.85
South Africa,90,25.0,Oldenburg 2013 Chardonnay (Stellenbosch),Chardonnay,Oldenburg,stellenbosch,-33.93,18.95
US,85,15.0,Wagner 2006 Grace House Pinot Noir (Finger Lakes),Pinot Noir,Wagner,geneva,42.57,-76.86
US,85,14.0,Treleaven 2006 Semi-Dry Riesling (Cayuga Lake),Riesling,Treleaven,ithaca,42.65,-76.63
US,85,18.0,Benessere 2005 Costa Del Sol Red (Napa Valley),Red Blend,Benessere,santa rosa,38.55,-122.51
US,85,16.0,Bloomer Creek 2006 Gewürztraminer (Finger Lakes),Gewürztraminer,Bloomer Creek,ithaca,42.49,-76.87
Australia,85,12.0,Angove's 2006 Red Belly Black Shiraz (South Australia),Shiraz,Angove's,adelaide,-35.21,138.55
US,85,28.0,Silvan Ridge 2006 Reserve Pinot Noir (Willamette Valley),Pinot Noir,Silvan Ridge,eugene,43.96,-123.26
Italy,85,10.0,Talamonti 2007 Cerasuolo Rosè  (Montepulciano d'Abruzzo),Montepulciano,Talamonti,penne,42.41,13.97
US,85,85.0,Meeker 2004 Kiss Ridge Vineyard Cabernet Sauvignon (Diamond Mountain District),Cabernet Sauvignon,Meeker,healdsburg,38.71,-122.9
Italy,85,18.0,Consorzio Vini Tipici di San Marino NV Moscato (San Marino),Moscato,Consorzio Vini Tipici di San Marino,san marino,43.94,12.46
Australia,85,29.0,D'Arenberg 2006 The Derelict Vineyard Grenache (McLaren Vale),Grenache,D'Arenberg,adelaide,-35.2,138.55
US,85,36.0,Dogwood 2005 Cabernet Sauvignon (Mendocino),Cabernet Sauvignon,Dogwood,arcata,40.91,-123.61
France,85,9.0,Domaine du Tariquet 2007 Ugni Blanc-Colombard (Vin de Pays des Côtes de Gascogne),Ugni Blanc-Colombard,Domaine du Tariquet,auch,43.85,0.17
US,85,34.0,Falcor 2005 Sangiovese (Napa Valley),Sangiovese,Falcor,napa,38.26,-122.28
US,85,15.0,Hayman & Hill 2007 Reserve Selection Chardonnay (Russian River Valley),Chardonnay,Hayman & Hill,bowen,-20.05,148.89
US,85,30.0,Hermann J. Wiemer 2002 Blanc de Blanc Chardonnay (Finger Lakes),Chardonnay,Hermann J. Wiemer,geneva,42.57,-76.93
Argentina,85,12.0,Finca Las Moras 2007 Reserve Chardonnay (San Juan),Chardonnay,Finca Las Moras,san juan,-32.07,-68.88
Australia,85,15.0,Long Flat 2006 Destinations Sauvignon Blanc (Adelaide Hills),Sauvignon Blanc,Long Flat,port macquarie,-31.54,152.69
US,85,45.0,Amity 2006 Estate Single Vineyard Pinot Noir (Willamette Valley),Pinot Noir,Amity,keizer,45.12,-123.21
US,85,18.0,Autumn Hill 2007 Petit Verdot-Merlot Red (Monticello),Bordeaux-style Red Blend,Autumn Hill,charlottesville,38.25,-78.51
US,85,49.0,Blue Rock 2005 Estate Cabernet Sauvignon (Alexander Valley),Cabernet Sauvignon,Blue Rock,healdsburg,38.74,-122.96
US,85,22.0,Cherry Hill 2006 Papillon Estate Pinot Noir (Willamette Valley),Pinot Noir,Cherry Hill,dallas,44.98,-123.19
US,85,35.0,Cloud 9 2006 Seity Zinfandel (Amador County),Zinfandel,Cloud 9,erie,42.13,-80.08
Argentina,85,15.0,Cueva de las Manos 2007 Reserve Malbec (Luján de Cuyo),Malbec,Cueva de las Manos,coihaique,-47.15,-70.66
US,89,45.0,David Fulton 2008 Petite Sirah (St. Helena),Petite Sirah,David Fulton,sonoma,38.51,-122.47
US,89,55.0,Esterlina 2009 Reserva Pinot Noir (Cole Ranch),Pinot Noir,Esterlina,ukiah,39.14,-123.5
South Africa,89,20.0,Goats do Roam Wine Co. 2008 Goat-Roti Syrah-Viognier (Coastal Region),Syrah-Viognier,Goats do Roam Wine Co.,paarl,-33.77,18.92
South Africa,89,18.0,Graham Beck 2007 The William Red (Coastal Region),Red Blend,Graham Beck,robertson,-33.8,19.8
South Africa,89,35.0,Hartenberg 2007 Cabernet Sauvignon (Stellenbosch),Cabernet Sauvignon,Hartenberg,stellenbosch,-33.9,18.79
France,89,13.0,Vignobles 46N118 2007 Noir 46 Malbec (Cahors),Malbec,Vignobles 46N118,carcassonne,43.21,2.23
US,89,40.0,Willamette Valley Vineyards 2009 Estate Pinot Noir (Willamette Valley),Pinot Noir,Willamette Valley Vineyards,salem,44.83,-123.01
Argentina,89,37.0,Algodon 2008 Estate Blend Gran Reserva Red,Red Blend,Algodon,san rafael,-34.65,-68.46
US,89,39.0,Beaver Creek 2008 Fairytale Red (Napa Valley),Red Blend,Beaver Creek,clearlake,38.73,-122.62
US,89,60.0,Byron 2009 Monument Pinot Noir (Santa Maria Valley),Pinot Noir,Byron,santa maria,34.87,-120.25
South Africa,89,19.0,Jardin 2007 Syrah (Stellenbosch),Syrah,Jardin,stellenbosch,-33.94,18.74
Argentina,89,14.0,Kaiken 2008 Corte Malbec-Bonarda-Petit Verdot Red (Mendoza),Red Blend,Kaiken,lujan,-33.04,-68.94
Italy,89,40.0,Lungarotti 2007 Torre di Giano Vigna il Pino White (Torgiano),White Blend,Lungarotti,perugia,43.03,12.43
Italy,89,36.0,Marchesi Fumanelli 2005 Terso White (Veneto),White Blend,Marchesi Fumanelli,negrar,45.51,10.9
Austria,89,17.0,Mariell 2009 Blaufränkisch (Leithaberg),Blaufränkisch,Mariell,eisenstadt,47.83,16.48
Italy,89,25.0,Livio Felluga 2009 Friulano (Colli Orientali del Friuli),Friulano,Livio Felluga,cividale del friuli,45.97,13.46
Italy,89,26.0,Nals Margreid 2010 Sirmian Pinot Bianco (Alto Adige),Pinot Bianco,Nals Margreid,appiano,46.54,11.2
Argentina,89,19.0,O. Fournier 2007 B Crux Red (Uco Valley),Red Blend,O. Fournier,lujan,-33.8,-69.12
Italy,89,13.0,Pico Maccario 2010 Estrosa White (Monferrato),White Blend,Pico Maccario,acqui terme,44.79,8.48
Argentina,89,30.0,Sottano 2009 Reserva de Familia Cabernet Sauvignon (Mendoza),Cabernet Sauvignon,Sottano,lujan,-33.1,-68.92
US,89,20.0,St. Francis 2009 Old Vines Zinfandel (Sonoma County),Zinfandel,St. Francis,santa rosa,38.44,-122.58
US,89,30.0,Trailhead 2010 Cabernet Sauvignon (Napa Valley),Cabernet Sauvignon,Trailhead,traverse city,45.33,-84.96
Italy,89,52.0,Franz Haas 2009 Sauvignon (Alto Adige),Sauvignon,Franz Haas,laives,46.32,11.29
Austria,92,24.0,Forstreiter 2012 Schiefer Reserve Grüner Veltliner (Kremstal),Grüner Veltliner,Forstreiter,traismauer,48.38,15.69
US,92,34.0,Cambria 2011 Bench Break Vineyard Pinot Noir (Santa Maria Valley),Pinot Noir,Cambria,santa maria,34.88,-120.26
Italy,92,41.0,I Giusti e Zanza 2009 Dulcamara Red (Toscana),Red Blend,I Giusti e Zanza,cascina,43.58,10.52
US,92,52.0,J. Christopher 2011 Bella Vida Vineyard Unfiltered Pinot Noir (Dundee Hills),Pinot Noir,J. Christopher,newberg,45.34,-123.01
Argentina,92,215.0,Viña Cobos 2011 Marchiori Vineyard Block C2 Malbec (Perdriel),Malbec,Viña Cobos,lujan,-33.1,-68.92
US,92,60.0,Talley 2011 Rincon Vineyard Pinot Noir (Arroyo Grande Valley),Pinot Noir,Talley,arroyo grande,35.18,-120.52
Spain,92,40.0,Acústic 2010 Braó Vinyes Velles Carignan-Grenache (Montsant),Carignan-Grenache,Acústic,cambrils,41.13,0.8
US,92,125.0,Parallel 2010 Fortune Teller Cabernet Sauvignon (Napa Valley),Cabernet Sauvignon,Parallel,canyon rim,40.71,-111.83
France,92,45.0,Domaine Daniel Dugois 2006 Vin Jaune Savagnin (Arbois),Savagnin,Domaine Daniel Dugois,champagnole,46.95,5.79
Australia,92,70.0,Kilikanoon 2009 Green's Vineyard Shiraz (Barossa Valley),Shiraz,Kilikanoon,gawler,-33.92,138.62
Argentina,92,30.0,Finca Sophenia 2011 Synthesis Malbec (Tupungato),Malbec,Finca Sophenia,lujan,-33.46,-69.22
US,87,35.0,Treana 2008 Treana Red Cabernet Sauvignon-Syrah (Paso Robles),Cabernet Sauvignon-Syrah,Treana,atascadero,35.59,-120.72
Chile,87,20.0,Ventisquero 2008 Grey [Glacier] Single Block Trinidad Vineyard Cabernet Sauvignon (Maipo Valley),Cabernet Sauvignon,Ventisquero,santa cruz,-34.62,-71.25
Italy,87,56.0,Cascina Adelaide 2005 4 Vigne  (Barolo),Nebbiolo,Cascina Adelaide,alba,44.61,7.95
US,87,24.0,Claudia Springs 2007 Zinfandel (Mendocino County),Zinfandel,Claudia Springs,ukiah,39.13,-123.53
Romania,87,7.0,Cramele Recas 2009 Chardonnay (Recas),Chardonnay,Cramele Recas,recas,45.8,21.51
France,87,30.0,Domaine Bertagna 2009 Les Dames Huguettes  (Côte de Nuits-Villages),Pinot Noir,Domaine Bertagna,chenove,47.18,4.96
Greece,87,18.0,Domaine Sigalas 2010 Asirtiko Athiri White (Santorini),White Blend,Domaine Sigalas,oia,36.47,25.39
Italy,87,20.0,Socré 2006 Nebbiolo (Langhe),Nebbiolo,Socré,alba,44.71,8.07
Italy,87,18.0,Boffa 2006 Nebbiolo (Langhe),Nebbiolo,Boffa,alba,44.73,8.08
US,87,40.0,Mount Veeder 2008 Cabernet Sauvignon (Napa Valley),Cabernet Sauvignon,Mount Veeder,sonoma,38.36,-122.4
Italy,86,15.0,Bellussi NV Extra Dry  (Prosecco di Valdobbiadene),Prosecco,Bellussi,valdobbiadene,45.88,12.0
Italy,86,20.0,Paladin 2007 Millesimato Brut Prosecco (Veneto),Prosecco,Paladin,santo stino di livenza,45.79,12.67
Italy,86,22.0,Perlage 2008 Col di Manza Extra Dry Millesimato  (Prosecco di Valdobbiadene),Prosecco,Perlage,pieve di soligo,45.9,12.14
Italy,86,16.0,Sant Eurosia 2007 Brut  (Prosecco di Valdobbiadene),Prosecco,Sant Eurosia,ivrea,45.44,7.88
Italy,86,12.0,L'Antica Quercia 2007 Matiú Brut  (Prosecco di Conegliano),Prosecco,L'Antica Quercia,vittorio veneto,45.94,12.3
US,86,11.0,Lucas Vineyards 2007 Vignoles (Finger Lakes),Vignoles,Lucas Vineyards,ithaca,42.63,-76.71
Italy,86,15.0,Marsuret NV Extra Dry  (Prosecco di Valdobbiadene),Prosecco,Marsuret,valdobbiadene,45.91,12.06
Chile,86,18.0,De Martino 2007 Legado Reserva Chardonnay (Limarí Valley),Chardonnay,De Martino,talagante,-33.75,-70.9
US,86,16.0,Beringer 2007 Alluvium Blanc White (Knights Valley),White Blend,Beringer,sonoma,38.51,-122.48
US,86,34.0,Brutocao 2006 Reserve Zinfandel (Mendocino),Zinfandel,Brutocao,ukiah,38.97,-123.12
US,86,40.0,Clos La Chance 2006 Lila's Cuvée Red (Central Coast),Red Blend,Clos La Chance,morgan hill,37.07,-121.64
Italy,86,19.0,Sommariva NV Palazzo Rosso Brut  (Prosecco di Conegliano),Prosecco,Sommariva,palermo,38.15,13.34
Italy,86,18.0,Spagnol NV Col del Sas Extra Dry  (Prosecco di Valdobbiadene),Prosecco,Spagnol,valdobbiadene,45.91,12.06
France,86,42.0,Jacquart NV Mosaïque Rosé Brut  (Champagne),Champagne Blend,Jacquart,reims,49.26,4.04
Chile,83,35.0,Koyle 2015 Costa Pinot Noir (Colchagua Costa),Pinot Noir,Koyle,san vicente,-34.54,-70.98
France,83,16.0,Château Notre Dame du Quatourze 2015 Rosé (Languedoc),Rosé,Château Notre Dame du Quatourze,narbonne,43.16,3.0
France,82,11.0,Mémoires 2015 Rosé (Coteaux Varois en Provence),Rosé,Mémoires,libourne,44.58,-0.25
Spain,82,13.0,Cavas Hill NV 1887 Rosado Sparkling (Cava),Sparkling Blend,Cavas Hill,sant pere de ribes,41.32,1.69
France,82,18.0,Antoine Moltès & Fils 2015 Tradition Pinot Gris (Alsace),Pinot Gris,Antoine Moltès & Fils,guebwiller,47.98,7.29
US,82,48.0,Pezzi King 2013 Serracino Reserve Zinfandel (Dry Creek Valley),Zinfandel,Pezzi King,healdsburg,38.61,-122.86
Chile,80,19.0,Viña Tarapacá 2015 Gran Reserva Chardonnay (Leyda Valley),Chardonnay,Viña Tarapacá,santiago,-33.42,-70.6
Australia,100,350.0,Chambers Rosewood Vineyards NV Rare Muscat (Rutherglen),Muscat,Chambers Rosewood Vineyards,corowa,-36.04,146.45
Germany,97,775.0,Robert Weil 2014 Kiedrich Gräfenberg Trockenbeerenauslese Riesling (Rheingau),Riesling,Robert Weil,eltville,50.04,8.09
Australia,97,225.0,Torbreck 2012 RunRig Shiraz-Viognier (Barossa),Shiraz-Viognier,Torbreck,gawler,-34.48,138.95
Italy,97,150.0,Cavallotto 2010 Vignolo Riserva  (Barolo),Nebbiolo,Cavallotto,alba,44.63,7.98
Hungary,96,320.0,Oremus 2005 Eszencia  (Tokaji),Furmint,Oremus,tolcsva,48.29,21.44
US,96,68.0,Rochioli 2014 South River Chardonnay (Russian River Valley),Chardonnay,Rochioli,windsor,38.53,-122.87
France,96,630.0,Louis Latour 2014 Le Montrachet  (Montrachet),Chardonnay,Louis Latour,beaune,47.05,4.84
Australia,95,85.0,Jasper Hill 2013 Georgia's Paddock Shiraz (Heathcote),Shiraz,Jasper Hill,bendigo,-36.85,144.68
France,95,350.0,Château de la Tour 2013 Vieilles Vignes  (Clos de Vougeot),Pinot Noir,Château de la Tour,chenove,47.18,4.96
Germany,95,66.0,Weingut Hans Bausch 2011 Hattenheimer Hassel Auslese Riesling (Rheingau),Riesling,Weingut Hans Bausch,ingelheim,50.02,8.05
France,95,110.0,Philippe Colin 2014 Les Chenevottes Premier Cru  (Chassagne-Montrachet),Chardonnay,Philippe Colin,beaune,46.93,4.74
Italy,95,60.0,Bel Colle 2012 Simposio  (Barolo),Nebbiolo,Bel Colle,bra,44.66,7.93
US,95,200.0,J. Davies 2012 Jamie Cabernet Sauvignon (Diamond Mountain District),Cabernet Sauvignon,J. Davies,sonoma,38.5,-122.46
US,95,48.0,Winderlea 2014 Weber Vineyard Pinot Noir (Dundee Hills),Pinot Noir,Winderlea,newberg,45.28,-123.04
Australia,95,60.0,Wakefield 2013 St. Andrews Single Vineyard Release Shiraz (Clare Valley),Shiraz,Wakefield,gawler,-34.0,138.7
Italy,88,21.0,Cantina Terlano 2000 Vorberg Pinot Bianco (Alto Adige),Pinot Bianco,Cantina Terlano,appiano,46.53,11.25
Italy,88,11.0,Montresor 2001  Bianco di Custoza,Garganega,Montresor,verona,45.46,10.97
Italy,88,21.0,Ronco del Gelso 1999 Chardonnay (Friuli),Chardonnay,Ronco del Gelso,gorizia,45.95,13.48
US,88,160.0,Sebastiani 1991 Cherryblock Vineyard Cabernet Sauvignon (Sonoma Valley),Cabernet Sauvignon,Sebastiani,sonoma,38.29,-122.45
Italy,88,23.0,Elena Walch 2002 Castel Ringberg Sauvignon Blanc (Alto Adige),Sauvignon Blanc,Elena Walch,appiano,46.34,11.24
Italy,88,10.0,Gini 2002 Classico  (Soave),White Blend,Gini,san bonifacio,45.42,11.28
Italy,88,15.0,Borgo Conventi 2002 I Fiori del Borgo Sauvignon Blanc (Collio),Sauvignon Blanc,Borgo Conventi,gorizia,45.92,13.53
US,88,19.0,Ceago Vinegarden 2001 Kathleen's Vineyard Sauvignon Blanc (Mendocino County),Sauvignon Blanc,Ceago Vinegarden,clearlake,39.11,-122.82
Italy,88,40.0,Valiano 1997 Vino in Musica Sangiovese (Toscana),Sangiovese,Valiano,montepulciano,43.15,11.9
Italy,88,18.0,Volpe Pasini 2002 Zuc de Volpe Pinot Grigio (Colli Orientali del Friuli),Pinot Grigio,Volpe Pasini,cividale del friuli,46.11,13.4
Mexico,88,18.0,L.A. Cetto 1996 Private Reserve Nebbiolo (Valle de Guadalupe),Nebbiolo,L.A. Cetto,ensenada,32.12,-116.52
Italy,88,15.0,La Vis 2001 Bianco dei Sorni White (Trentino),White Blend,La Vis,trento,46.14,11.11
Chile,88,12.0,Lapostolle 2002 Estate Bottled Merlot (Rapel Valley),Merlot,Lapostolle,santiago,-33.4,-70.59
Italy,88,11.0,Fratelli Zeni 2000 Vigne Alte  (Bianco di Custoza),White Blend,Fratelli Zeni,pescantina,45.54,10.73
Italy,88,9.0,Tommasi 2001 Vigneto Santa Cecilia Chardonnay (Valdadige),Chardonnay,Tommasi,negrar,45.51,10.92
Italy,88,30.0,San Michele Eppan 2002 Sanct Valentin Gewürztraminer (Alto Adige),Gewürztraminer,San Michele Eppan,appiano,46.45,11.27
US,88,18.0,Vinoce 2001 Sauvignon Blanc (Rutherford),Sauvignon Blanc,Vinoce,napa,38.29,-122.29
US,88,34.0,Merriam 2000 Windacre Vineyard Merlot (Russian River Valley),Merlot,Merriam,windsor,38.58,-122.84
US,88,25.0,Kynsi 1999 Paragon Vineyard Pinot Noir (Edna Valley),Pinot Noir,Kynsi,arroyo grande,35.19,-120.58
Chile,88,14.0,Valdivieso 2001 Reserve Chardonnay (Central Valley),Chardonnay,Valdivieso,santiago,-33.48,-70.62
US,87,12.0,Bridlewood 2000 Sauvignon Blanc (Santa Ynez Valley),Sauvignon Blanc,Bridlewood,isla vista,34.65,-120.08
Chile,87,11.0,San Pedro 2002 Castillo de Molina Reserva Chardonnay (Lontué Valley),Chardonnay,San Pedro,melipilla,-34.04,-71.37
Chile,87,12.0,Undurraga 2001 Reserva Merlot (Maipo Valley),Merlot,Undurraga,penaflor,-33.65,-70.89
US,85,16.0,Cline 2007 Ancient Vines Zinfandel (California),Zinfandel,Cline,sonoma,38.21,-122.46
Italy,85,24.0,Astoria 2008 Extra Dry  (Prosecco di Valdobbiadene),Prosecco,Astoria,susegana,45.87,12.24
Italy,85,13.0,Cantine Maschio NV Brut Prosecco (Italy),Prosecco,Cantine Maschio,oderzo,45.85,12.43
Italy,85,19.0,Val d'Oca 2008 Millesimato Extra Dry  (Prosecco di Valdobbiadene),Prosecco,Val d'Oca,valdobbiadene,45.87,12.03
US,85,15.0,Vinavanti 2005 Le Bon Viveur Red (California),Red Blend,Vinavanti,poway,32.9,-117.14
US,85,45.0,Vino V 2005 White Hawk Vineyard Syrah (Santa Barbara County),Syrah,Vino V,oxnard,34.39,-119.29
Italy,85,19.0,Viticoltori Ponte NV Extra Dry  (Prosecco del Veneto),Prosecco,Viticoltori Ponte,oderzo,45.72,12.47
Italy,85,15.0,Le Vigne di Alice 2008 Millesimato Extra Dry  (Prosecco di Conegliano e Valdobbiadene),Prosecco,Le Vigne di Alice,vittorio veneto,45.95,12.29
US,85,20.0,McGregor 2007 Dry Gewürztraminer (Finger Lakes),Gewürztraminer,McGregor,corning,42.5,-77.1
US,85,20.0,Miles 2006 Cabernet Franc (Finger Lakes),Cabernet Franc,Miles,geneva,42.62,-76.92
US,85,12.0,Morro Bay 2006 Split Oak Vineyard Cabernet Sauvignon (California),Cabernet Sauvignon,Morro Bay,morro bay,35.37,-120.85
Italy,85,13.0,Pizzolato 2007  Prosecco del Veneto,Prosecco,Pizzolato,villorba,45.75,12.22
US,85,14.0,Red Newt Cellars 2007 Riesling (Finger Lakes),Riesling,Red Newt Cellars,ithaca,42.5,-76.87
Italy,85,14.0,Ca'Tullio NV Extra Dry  (Prosecco del Veneto),Prosecco,Ca'Tullio,cervignano del friuli,45.76,13.37
France,89,20.0,Château de Callac 2011  Graves,Bordeaux-style Red Blend,Château de Callac,bergerac,44.81,0.33
US,89,30.0,Guardian 2013 Confidential Source Merlot (Columbia Valley (WA)),Merlot,Guardian,woodinville,47.73,-122.14
US,89,20.0,Kerloo 2015 Blue Mountain Vineyard Grenache Blanc (Walla Walla Valley (WA)),Grenache Blanc,Kerloo,seattle,47.57,-122.34
Austria,89,23.0,Kohl 2015 Kittl Grüner Veltliner (Weinviertel),Grüner Veltliner,Kohl,zistersdorf,48.46,16.65
US,89,30.0,Las Positas 2014 Verdigris White (California),White Blend,Las Positas,livermore,37.65,-121.77
US,89,18.0,Lieb 2015 Bridge Lane Rosé (New York),Rosé,Lieb,clinton,41.04,-72.5
Spain,89,18.0,Luberri 2011 Seis  (Rioja),Tempranillo,Luberri,logrono,42.52,-2.63
US,89,35.0,Macari 2010 Cuvée Gabriella Brut Rosé Sparkling (North Fork of Long Island),Sparkling Blend,Macari,madison,40.99,-72.57
Austria,89,17.0,Malat 2015 Crazy Creatures Grüner Veltliner (Kremstal),Grüner Veltliner,Malat,krems,48.38,15.61
US,89,42.0,Milbrandt 2013 The Estates Clifton Hill Vineyard Syrah (Wahluke Slope),Syrah,Milbrandt,grandview,46.22,-119.78
US,89,30.0,Ojai 2014 McGinley Vineyard Sauvignon Blanc (Santa Ynez Valley),Sauvignon Blanc,Ojai,santa paula,34.45,-119.24
US,89,24.0,ONX 2015 Indie Tempranillo (Templeton Gap District),Tempranillo,ONX,atascadero,35.58,-120.69
US,89,16.0,Pomum 2014 Upland Vineyard Riesling (Snipes Mountain),Riesling,Pomum,woodinville,47.76,-122.15
US,89,27.0,Prospect 772 2014 Stepping Stones Grenache Blanc (Santa Barbara County),Grenache Blanc,Prospect 772,oakdale,38.04,-120.62
Italy,89,89.0,Revello Fratelli 2012 Rocche dell'Annunziata  (Barolo),Nebbiolo,Revello Fratelli,alba,44.64,7.96
Italy,89,15.0,Tenuta La Marchesa 2015 Gold Label  (Gavi),Cortese,Tenuta La Marchesa,novi ligure,44.74,8.79
US,89,54.0,Trione 2012 Henry's Blend Red (Alexander Valley),Bordeaux-style Red Blend,Trione,healdsburg,38.69,-122.88
Spain,89,15.0,Vinos de Arganza 2012 Século Mencía (Bierzo),Mencía,Vinos de Arganza,ponferrada,42.55,-6.78
US,89,38.0,Walla Walla Vintners 2013 Cabernet Sauvignon (Walla Walla Valley (WA)),Cabernet Sauvignon,Walla Walla Vintners,walla walla,46.09,-118.2
Austria,89,12.0,Winzer Krems 2015 Rosé Zweigelt (Niederösterreich),Zweigelt,Winzer Krems,krems,48.42,15.62
US,89,35.0,Wölffer 2013 Caya Cabernet Franc (Long Island),Cabernet Franc,Wölffer,old saybrook,40.95,-72.28
US,88,32.0,Dunbar 2012 Estate Grown Zinfandel (Sonoma Valley),Zinfandel,Dunbar,south charleston,38.36,-81.74
Austria,88,12.0,Eschenhof Holzer 2015 Altweingarten Grüner Veltliner (Wagram),Grüner Veltliner,Eschenhof Holzer,traismauer,48.48,15.87
Italy,88,28.0,Fattorie Romeo del Castello 2015 Vigorosa Rosato Nerello Mascalese (Etna),Nerello Mascalese,Fattorie Romeo del Castello,randazzo,37.89,14.98
US,88,20.0,Flying Cloud 2014 Cabernet Sauvignon (Paso Robles),Cabernet Sauvignon,Flying Cloud,san luis obispo,35.24,-120.67
France,88,14.0,Gadais Père et Fils 2015 Domaine de la Vieille Cure Sur Lie  (Muscadet Sèvre et Maine),Melon,Gadais Père et Fils,vertou,47.14,-1.42
France,88,19.0,André Brunel 2014 Domaine de la Becassonne White (Côtes du Rhône),Rhône-style White Blend,André Brunel,sorgues,44.06,4.83
Italy,92,39.0,Majolini 2006 Pas Dosé Aligi Sassu Chardonnay (Franciacorta),Chardonnay,Majolini,gussago,45.63,10.13
Italy,92,35.0,Montemercurio 2007 Messaggero  (Vino Nobile di Montepulciano),Sangiovese,Montemercurio,montepulciano,43.08,11.77
France,92,69.0,Philippe Fontaine NV Brut Prestige  (Champagne),Champagne Blend,Philippe Fontaine,troyes,48.03,4.37
Canada,92,30.0,Pillitteri 2012 Reserve Icewine Vidal (Niagara-On-The-Lake),Vidal,Pillitteri,niagara falls,43.23,-79.11
US,92,23.0,Roederer Estate NV Brut Sparkling (Anderson Valley),Sparkling Blend,Roederer Estate,ukiah,39.11,-123.5
US,92,45.0,Rusack 2011 Solomon Hills Vineyard Pinot Noir (Santa Maria Valley),Pinot Noir,Rusack,lompoc,34.64,-120.14
Italy,92,50.0,Bellavista 2006 Gran Cuvée Pas Operé Sparkling (Franciacorta),Sparkling Blend,Bellavista,cazzago san martino,45.61,9.98
France,92,100.0,Chanoine NV Tzarina No 1 Brut  (Champagne),Champagne Blend,Chanoine,bagnols-sur-ceze,44.17,4.52
US,92,50.0,Chehalem 2011 Ridgecrest Vineyards Pinot Noir (Ribbon Ridge),Pinot Noir,Chehalem,newberg,45.31,-122.92
France,92,66.0,Henri de Villamont 2010 Blagny Premier Cru  (Meursault),Chardonnay,Henri de Villamont,beaune,47.06,4.82
France,92,60.0,Vollereaux 2007 Cuvée Marguerite Brut  (Champagne),Champagne Blend,Vollereaux,epernay,49.02,3.93
Germany,92,115.0,Wittmann 2011 Westhofen Morstein GG Trocken Riesling (Rheinhessen),Riesling,Wittmann,worms,49.71,8.25
Italy,92,69.0,Valentina Cubi 2008 Morar  (Amarone della Valpolicella),Red Blend,Valentina Cubi,negrar,45.53,10.89
US,92,65.0,Domaine Serene 2010 Evenstad Reserve Pinot Noir (Willamette Valley),Pinot Noir,Domaine Serene,newberg,45.27,-123.07
Germany,92,42.0,Dr. Loosen 2011 Ürziger Würzgarten Alte Reben GG Trocken Riesling (Mosel),Riesling,Dr. Loosen,morbach,49.92,7.07
France,92,70.0,H. Blin 2003 Édition Limitée Extra Brut  (Champagne),Champagne Blend,H. Blin,chateau-thierry,49.09,3.64
US,92,130.0,Bell 2009 Clone 6 Cabernet Sauvignon (Rutherford),Cabernet Sauvignon,Bell,napa,38.39,-122.34
France,92,65.0,Château Vray Croix de Gay 2010  Pomerol,Bordeaux-style Red Blend,Château Vray Croix de Gay,libourne,44.94,-0.17
Italy,87,15.0,Santa Maria La Palma 2006 Riserva  (Cannonau di Sardegna),Cannonau,Santa Maria La Palma,alghero,40.66,8.27
US,87,45.0,Sparkman 2009 Stella Mae Red (Red Mountain),Bordeaux-style Red Blend,Sparkman,woodinville,47.73,-122.14
Italy,87,18.0,Argiolas 2008 Costera Cannonau (Isola dei Nuraghi),Cannonau,Argiolas,sinnai,39.37,9.16
US,87,60.0,Babcock 2010 Ocean's Ghost Pinot Noir (Sta. Rita Hills),Pinot Noir,Babcock,lompoc,34.67,-120.33
South Africa,87,12.0,Cape View 2011 Chenin Blanc (Stellenbosch),Chenin Blanc,Cape View,cape town,-34.1,18.39
South Africa,87,12.0,Ken Forrester 2011 Petit Chenin Blanc (Western Cape),Chenin Blanc,Ken Forrester,somerset west,-34.03,18.82
Italy,87,15.0,Marco Cecchini 2010 Tovè White (Colli Orientali del Friuli),White Blend,Marco Cecchini,cividale del friuli,46.14,13.34
Italy,87,18.0,Vigneti Le Monde 2010 Pinot Grigio (Friuli Grave),Pinot Grigio,Vigneti Le Monde,motta di livenza,45.86,12.55
US,87,30.0,Zerba Cellars 2008 Sangiovese (Walla Walla Valley (WA)),Sangiovese,Zerba Cellars,college place,46.0,-118.39
US,87,12.0,Knapp 2011 Chardonnay (Finger Lakes),Chardonnay,Knapp,geneva,42.77,-76.78
US,87,18.0,Lava Cap 2010 Battonage Chardonnay (El Dorado),Chardonnay,Lava Cap,placerville,38.75,-120.74
Spain,87,25.0,Loess 2009 Collection Blanco Verdejo (Rueda),Verdejo,Loess,aranda de duero,41.72,-3.9
US,87,30.0,MICA Cellars 2009 Babcock Vineyard Cabernet Franc (Suisun Valley),Cabernet Franc,MICA Cellars,placerville,38.6,-120.68
US,87,17.0,Michael Pozzan 2010 Annabella Pinot Noir (Carneros),Pinot Noir,Michael Pozzan,sonoma,38.44,-122.4
France,87,20.0,Domaine du Grand Cros 2011 L'Esprit de Provence Rosé (Côtes de Provence),Rosé,Domaine du Grand Cros,brignoles,43.32,6.19
Spain,87,11.0,El Coto 2011 Rosado Rosé (Rioja),Rosé,El Coto,tineo,43.2,-6.54
US,87,15.0,Fenestra 2010 Silvaspoons Vineyard Verdelho (Lodi),Verdelho,Fenestra,livermore,37.64,-121.8
Austria,87,18.0,Gunter Triebaumer NV Muscato Moscato (Österreichischer Sekt),Moscato,Gunter Triebaumer,rust,47.8,16.67
US,87,19.0,Hanna 2011 Sauvignon Blanc (Russian River Valley),Sauvignon Blanc,Hanna,roseland,38.42,-122.81
France,87,15.0,Alain Jaume et Fils 2009 Réserve Grand Veneur Red (Côtes du Rhône),Rhône-style Red Blend,Alain Jaume et Fils,orange,44.11,4.82
Spain,87,16.0,Aleo 2009 Tempranillo (Vino de la Tierra de Castilla y León),Tempranillo,Aleo,logrono,42.57,-2.59
Italy,87,12.0,Altùris 2011 White (Venezia Giulia),White Blend,Altùris,cividale del friuli,46.08,13.44
US,87,28.0,Camaraderie 2009 Clifton Vineyard Syrah (Wahluke Slope),Syrah,Camaraderie,port angeles,48.1,-123.48
France,91,70.0,Boude Baudin 2010 Cuvée St Clément  (Champagne),Champagne Blend,Boude Baudin,epernay,49.11,3.91
US,91,90.0,Conn Creek 2013 El Adobo Ranch Vineyard Cabernet Sauvignon (Chiles Valley),Cabernet Sauvignon,Conn Creek,sonoma,38.49,-122.4
US,91,75.0,D.R. Stephens 2014 Silver Eagle Vineyard Pinot Noir (Sonoma Coast),Pinot Noir,D.R. Stephens,sonoma,38.51,-122.44
US,91,55.0,Davis Family 2014 Soul Patch Estate Grown Pinot Noir (Russian River Valley),Pinot Noir,Davis Family,healdsburg,38.61,-122.86
France,91,60.0,Domaine Jeannin-Naltet 2014 Le Clos l'Evêque Premier Cru  (Mercurey),Pinot Noir,Domaine Jeannin-Naltet,chalon-sur-saone,46.84,4.73
US,91,35.0,Qupé 2013 Doux Sawyer Lindquist Vineyard Marsanne (Edna Valley),Marsanne,Qupé,arroyo grande,35.12,-120.58
US,91,55.0,Rex Hill 2014 Sims Vineyard Pinot Noir (Willamette Valley),Pinot Noir,Rex Hill,newberg,45.31,-122.92
US,91,65.0,Ruby 2015 Steve's Reserve Pinot Noir (Chehalem Mountains),Pinot Noir,Ruby,livermore,37.65,-121.81
US,91,35.0,Structure 2014 Wallula Syrah (Horse Heaven Hills),Syrah,Structure,seattle,47.57,-122.34
US,91,55.0,Tumwater 2014 Prince Hill Vineyard Reserve Pinot Noir (Dundee Hills),Pinot Noir,Tumwater,canby,45.33,-122.68
France,91,42.0,Jeaunaux-Robin NV Brut Zéro Sélection  (Champagne),Champagne Blend,Jeaunaux-Robin,epernay,48.83,3.75
US,91,45.0,Joseph Jewell 2014 Bucher Vineyard Pinot Noir (Russian River Valley),Pinot Noir,Joseph Jewell,windsor,38.47,-122.89
US,91,38.0,Le Vigne 2014 Di Domenico Cabernet Sauvignon (Paso Robles),Cabernet Sauvignon,Le Vigne,atascadero,35.67,-120.66
Germany,91,22.0,Maximin Grünhäuser 2015 Trocken Riesling (Mosel),Riesling,Maximin Grünhäuser,trier,49.77,6.72
US,91,50.0,Northstar 2013 Red (Walla Walla Valley (WA)),Bordeaux-style Red Blend,Northstar,college place,46.01,-118.36
US,91,110.0,Padis 2012 Cabernet Sauvignon (Napa Valley),Cabernet Sauvignon,Padis,napa,38.33,-122.35
US,91,45.0,Paul O'Brien 2014 Bradley Vineyard Pinot Noir (Umpqua Valley),Pinot Noir,Paul O'Brien,roseburg,43.21,-123.35
US,93,60.0,Flying Goat Cellars 2012 Bien Nacido Vineyard Pinot Noir (Santa Maria Valley),Pinot Noir,Flying Goat Cellars,lompoc,34.64,-120.44
Italy,93,30.0,Abbazia di Novacella 2012 Praepositus Passito Kerner (Alto Adige Valle Isarco),Kerner,Abbazia di Novacella,bressanone,46.74,11.65
US,93,75.0,Midsummer Cellars 2013 Cañon Creek Vineyard Cabernet Sauvignon (Napa Valley),Cabernet Sauvignon,Midsummer Cellars,sonoma,38.54,-122.47
US,93,150.0,Turiya 2011 Stolpman Vineyard Sangiovese (Ballard Canyon),Sangiovese,Turiya,lompoc,34.64,-120.45
US,93,85.0,Iron Horse 2013 Thomas Road Pinot Noir (Green Valley),Pinot Noir,Iron Horse,windsor,38.46,-122.9
Italy,93,90.0,Brandini 2011 Resa 56  (Barolo),Nebbiolo,Brandini,bra,44.64,7.91
US,93,35.0,Artesa 2014 Estate Reserve Chardonnay (Carneros),Chardonnay,Artesa,napa,38.27,-122.36
US,93,46.0,Carlisle 2013 Pagani Ranch Zinfandel (Sonoma Valley),Zinfandel,Carlisle,windsor,38.52,-122.84
France,93,20.0,Château Vignelaure 2015 Rosé (Coteaux d'Aix-en-Provence),Rosé,Château Vignelaure,pertuis,43.61,5.69
Argentina,93,42.0,Clos d'Argentine 2013 Winemaker's Selection Reserva Malbec (Mendoza),Malbec,Clos d'Argentine,lujan,-33.67,-69.19
France,93,40.0,Mas de Cadenet 2015 Mas Negrel Cadenet Rosé (Côtes de Provence Sainte-Victoire),Rosé,Mas de Cadenet,gardanne,43.48,5.66
US,93,75.0,Passing Time 2013 Cabernet Sauvignon (Horse Heaven Hills),Cabernet Sauvignon,Passing Time,woodinville,47.76,-122.15
Spain,93,88.0,Resalte 2010 Gran Resalte  (Ribera del Duero),Tempranillo,Resalte,aranda de duero,41.61,-4.16
US,93,40.0,Sanctuary 2013 Bien Nacido Vineyard Pinot Noir (Santa Maria Valley),Pinot Noir,Sanctuary,elizabeth city,36.21,-75.86
US,93,25.0,Terre Rouge 2014 Enigma White (Sierra Foothills),White Blend,Terre Rouge,placerville,38.52,-120.82
US,93,48.0,Limerick Lane 2013 Hail Mary Syrah-Grenache (Russian River Valley),Syrah-Grenache,Limerick Lane,healdsburg,38.59,-122.83
US,93,50.0,Loring Wine Company 2014 Durell Vineyard Pinot Noir (Sonoma Coast),Pinot Noir,Loring Wine Company,lompoc,34.66,-120.47
US,93,65.0,Eighty Four 2010 Petite Sirah (Napa Valley),Petite Sirah,Eighty Four,washington,40.17,-80.14
US,93,62.0,Four Lanterns 2013 Fire Light Syrah (Paso Robles),Syrah,Four Lanterns,atascadero,35.57,-120.74
Argentina,93,55.0,Benegas 2011 Benegas Lynch La Encerrada Estate Vineyard Malbec (Mendoza),Malbec,Benegas,lujan,-33.0,-68.85
US,89,38.0,Alleromb 2014 La Reyna Blanca Vineyard Chardonnay (Columbia Valley (WA)),Chardonnay,Alleromb,walla walla,46.07,-118.34
US,89,25.0,Berryessa Gap 2015 Albariño (Yolo County),Albariño,Berryessa Gap,vacaville,38.51,-122.0
Italy,89,15.0,Brezza 2015  Dolcetto d'Alba,Dolcetto,Brezza,bra,44.61,7.94
France,89,11.0,Château de Campuget 2016 Tradition Rosé (Costières de Nîmes),Rosé,Château de Campuget,saint-gilles,43.8,4.5
France,89,14.0,Château de l'Aubrade 2015  Bordeaux Supérieur,Bordeaux-style Red Blend,Château de l'Aubrade,saint-medard-en-jalles,45.22,-0.77
France,89,37.0,Château de Pressac 2014 Les Terrasses de Pressac  (Saint-Émilion),Bordeaux-style Red Blend,Château de Pressac,libourne,44.88,-0.09
US,89,17.0,Chateau Lafayette Reneau 2016 Pinot Noir Rosé (Finger Lakes),Rosé,Chateau Lafayette Reneau,ithaca,42.48,-76.87
France,89,15.0,Château Maison Noble Saint Martin 2015 Château Jean de Bel Air  (Bordeaux),Bordeaux-style Red Blend,Château Maison Noble Saint Martin,marmande,44.67,-0.02
US,89,26.0,Savage Grace 2016 Orange Oak Ridge Vineyard Gewürztraminer (Columbia Gorge (WA)),Gewürztraminer,Savage Grace,woodinville,47.77,-122.15
US,89,32.0,Silvertip 2014 Unfiltered Estate Pinot Noir (Santa Cruz Mountains),Pinot Noir,Silvertip,saratoga,37.26,-122.04
Austria,89,18.0,Steininger 2016 Grüner Veltliner (Kamptal),Grüner Veltliner,Steininger,langenlois,48.47,15.68
US,89,25.0,Stevens 2016 StevensSteel Chardonnay (Yakima Valley),Chardonnay,Stevens,woodinville,47.76,-122.15
Austria,89,18.0,Strauss 2016 Classic Pinot Blanc (Steiermark),Pinot Blanc,Strauss,leibnitz,46.69,15.53
US,89,18.0,Trinity River 2015 Chardonnay,Chardonnay,Trinity River,arcata,40.97,-123.63
US,89,17.0,Vintage Cowboy 2016 Chardonnay (Paso Robles),Chardonnay,Vintage Cowboy,arroyo grande,35.3,-120.37
US,89,41.0,Kontos 2014 Summit View Vineyard Malbec (Walla Walla Valley (WA)),Malbec,Kontos,walla walla,46.07,-118.34
Austria,89,16.0,Landhaus Mayer 2016 Riesling (Niederösterreich),Riesling,Landhaus Mayer,langenzersdorf,48.26,16.36
France,89,20.0,Lavau 2015 La Decelle Red,Rhône-style Red Blend,Lavau,saint-andre-les-vergers,48.29,4.07
US,89,30.0,L'Ecole No. 41 2014 Cabernet Sauvignon (Columbia Valley (WA)),Cabernet Sauvignon,L'Ecole No. 41,college place,46.06,-118.58
Greece,89,13.0,Lyrarakis 2015 Vilana (Crete),Vilana,Lyrarakis,arkalokhorion,35.18,25.21
US,89,36.0,Midnight 2013 Starlight Sangiovese (Paso Robles),Sangiovese,Midnight,atascadero,35.58,-120.74
Italy,87,19.0,Michele Chiarlo 2011 Le Marne  (Gavi),Cortese,Michele Chiarlo,canelli,44.73,8.32
Mexico,87,15.0,Monte Xanic 2012 Viña Kristel Sauvignon Blanc (Valle de Guadalupe),Sauvignon Blanc,Monte Xanic,el sauzal,32.09,-116.59
US,87,69.0,Paoletti 2010 Cabernet Sauvignon (Oak Knoll District),Cabernet Sauvignon,Paoletti,santa rosa,38.57,-122.54
US,87,36.0,Peconic Bay Winery 2010 Cabernet Franc (North Fork of Long Island),Cabernet Franc,Peconic Bay Winery,clinton,41.03,-72.47
Spain,87,35.0,Príncipe de Viana 2008 Reserva 1423 Red (Navarra),Red Blend,Príncipe de Viana,tudela,42.04,-1.65
Argentina,87,30.0,Proemio 2009 Gran Reserve Winemaker's Selection Red (Mendoza),Red Blend,Proemio,mendoza,-32.89,-68.69
US,87,25.0,Quady North 2011 Bomba Grenache (Rogue Valley),Grenache,Quady North,central point,42.31,-122.97
Portugal,87,15.0,Quinta do Portal 2012 Verdelho and Sauvignon Blanc White (Douro),Portuguese White,Quinta do Portal,vilela,41.24,-7.57
US,87,20.0,Raptor Ridge 2012 Estate Grüner Veltliner (Chehalem Mountains),Grüner Veltliner,Raptor Ridge,newberg,45.39,-122.95
US,87,17.0,Rodney Strong 2012 Charlotte's Home Estate Sauvignon Blanc (Northern Sonoma),Sauvignon Blanc,Rodney Strong,windsor,38.57,-122.84
US,87,54.0,Saintsbury 2010 Toyon Farm Pinot Noir (Carneros),Pinot Noir,Saintsbury,napa,38.25,-122.33
US,87,40.0,Sextant 2010 Caverio G-S-M (Paso Robles),G-S-M,Sextant,atascadero,35.57,-120.74
Portugal,87,12.0,Solar de Pinheiro 2012 Paço de São Lourenço White (Vinho Verde),Portuguese White,Solar de Pinheiro,mozelos,42.04,-8.49
Italy,87,19.0,Suavia 2011  Soave Classico,Garganega,Suavia,san bonifacio,45.45,11.25
US,87,45.0,B Cellars 2011 Dutton Ranch Chardonnay (Russian River Valley),Chardonnay,B Cellars,sonoma,38.45,-122.38
Italy,87,25.0,Bacio della Luna 2012 Millesimato Extra Dry  (Conegliano Valdobbiadene Prosecco Superiore),Glera,Bacio della Luna,valdobbiadene,45.88,12.03
US,87,35.0,Barlow 2009 Unfiltered Merlot (Calistoga),Merlot,Barlow,santa rosa,38.58,-122.54
Italy,87,16.0,Borgo Maragliano NV Brut Chardonnay (Piedmont),Chardonnay,Borgo Maragliano,canelli,44.67,8.26
Italy,87,20.0,Bortolotti NV Dry  (Conegliano Valdobbiadene Prosecco Superiore),Glera,Bortolotti,valdobbiadene,45.9,12.0
US,87,25.0,Coiled 2009 Sidewinder Red,Red Blend,Coiled,garden city,43.62,-116.24
US,87,20.0,Colter's Creek 2010 Koos-Koos-Kia Colter's Creek Vineyard Red (Idaho),Red Blend,Colter's Creek,moscow,46.73,-117.0
Italy,87,15.0,Corte Falco 2010  Soave,Garganega,Corte Falco,siena,43.05,11.45
Italy,87,23.0,Domenico Cavazza 2008 Memorio Creari  (Gambellara Classico),Garganega,Domenico Cavazza,montecchio maggiore,45.47,11.36
Italy,87,19.0,Cascina La Ghersa 2009 Sivoy White (Monferrato),White Blend,Cascina La Ghersa,canelli,44.76,8.28
Australia,92,35.0,Kangarilla Road 2012 Alluvial Fans Shiraz (McLaren Vale),Shiraz,Kangarilla Road,adelaide,-35.21,138.61
US,92,75.0,Walt 2013 Pinpoint Extreme Pinot Noir (Russian River Valley),Pinot Noir,Walt,sonoma,38.29,-122.46
US,92,48.0,WillaKenzie Estate 2013 Aliette Pinot Noir,Pinot Noir,WillaKenzie Estate,forest grove,45.36,-123.13
France,92,54.0,Willm 2011 Vendanges Tardives Gewurztraminer (Alsace),Gewürztraminer,Willm,obernai,48.41,7.45
France,92,34.0,Jean-Marc Bernhard 2013 Wineck-Schlossberg Grand Cru Riesling (Alsace),Riesling,Jean-Marc Bernhard,colmar,48.11,7.28
Australia,92,60.0,Yeringberg 2013 Viognier (Yarra Valley),Viognier,Yeringberg,healesville,-37.69,145.42
US,92,48.0,Armida 2013 Tina's Block Maple Vineyard Zinfandel (Dry Creek Valley),Zinfandel,Armida,healdsburg,38.59,-122.88
Spain,92,28.0,Marqués de Murrieta 2010 Capellanía Viura (Rioja),Viura,Marqués de Murrieta,logrono,42.46,-2.38
France,92,45.0,Biecher & Schaal 2014 Altenberg de Bergheim Grand Cru White (Alsace),Alsace white blend,Biecher & Schaal,selestat,48.22,7.4
France,92,36.0,Domaines Schlumberger 2010 Kitterlé Grand Cru Riesling (Alsace),Riesling,Domaines Schlumberger,guebwiller,47.91,7.21
US,92,37.0,Foxen 2014 Tinaquaic Vineyard Chardonnay (Santa Maria Valley),Chardonnay,Foxen,santa maria,34.82,-120.23
US,92,60.0,Melhill 2012 Chardonnay (Sonoma Coast),Chardonnay,Melhill,rapid city,43.95,-103.52
US,92,40.0,Niner 2013 Estate Grown Cabernet Sauvignon (Paso Robles),Cabernet Sauvignon,Niner,atascadero,35.57,-120.74
US,92,50.0,Purple Hands 2014 Freedom Hill Vineyard Pinot Noir (Willamette Valley),Pinot Noir,Purple Hands,newberg,45.27,-123.01
Portugal,92,23.0,Quinta da Lagoalva de Cima 2013 Lagoalva Barrel Selection Tinto Red (Tejo),Portuguese Red,Quinta da Lagoalva de Cima,alpiarca,39.3,-8.56
Germany,92,34.0,Reichsgraf von Kesselstatt 2014 Brauneberger Juffer-Sonnenuhr Spätlese Grosse Lage Riesling (Mosel),Riesling,Reichsgraf von Kesselstatt,trier,49.74,6.75
Italy,92,24.0,Sturm 2014 Sauvignon (Collio),Sauvignon,Sturm,gorizia,45.97,13.5
Australia,92,21.0,Plantagenet 2014 Riesling (Great Southern),Riesling,Plantagenet,albany,-34.62,117.66
US,92,35.0,Scratch 2013 Grenache (Arroyo Seco),Grenache,Scratch,monterey,36.55,-121.92
France,92,43.0,Sipp Mack 2014 Rosacker Grand Cru Riesling (Alsace),Riesling,Sipp Mack,colmar,48.18,7.31
US,92,30.0,St. Amant 2013 Lodi Native Marian's Vineyard Zinfandel (Mokelumne River),Zinfandel,St. Amant,lodi,38.15,-121.25
US,92,70.0,Stoller 2013 Nancy's Pinot Noir (Dundee Hills),Pinot Noir,Stoller,newberg,45.24,-123.07
South Africa,92,50.0,Fable Mountain 2011 Night Sky Red (Coastal Region),Rhône-style Red Blend,Fable Mountain,ceres,-33.35,19.21
US,90,40.0,Vine Cliff 2013 Chardonnay (Los Carneros),Chardonnay,Vine Cliff,napa,38.45,-122.35
US,90,45.0,Va Piano 2012 Cabernet Sauvignon (Walla Walla Valley (WA)),Cabernet Sauvignon,Va Piano,college place,46.0,-118.37
US,90,80.0,Y Rousseau 2012 Le Roi Soleil Cabernet Sauvignon (Mount Veeder),Cabernet Sauvignon,Y Rousseau,napa,38.26,-122.27
US,90,15.0,Monte Volpe 2013 Pinot Grigio (Mendocino),Pinot Grigio,Monte Volpe,ukiah,39.26,-123.24
Italy,90,65.0,Palladino 2011 Ornato  (Barolo),Nebbiolo,Palladino,alba,44.61,8.0
US,90,65.0,Paradise Ridge 2012 Rockpile Vineyard Cabernet Sauvignon (Rockpile),Cabernet Sauvignon,Paradise Ridge,santa rosa,38.49,-122.72
Italy,90,35.0,Pecchenino 2013 Siri d'Jermu  (Dogliani Superiore),Dolcetto,Pecchenino,alba,44.56,7.97
Spain,90,15.0,Rafael Cambra 2012 Soplo Garnacha Tintorera (Valencia),Garnacha Tintorera,Rafael Cambra,villena,38.78,-0.78
US,90,26.0,Raphael 2014 Virgin Berry Riesling (North Fork of Long Island),Riesling,Raphael,clinton,41.03,-72.46
US,90,30.0,Seven Hills 2013 McClellan Estate Vineyard Malbec (Walla Walla Valley (WA)),Malbec,Seven Hills,walla walla,46.07,-118.34
US,90,13.0,Snoqualmie 2013 Eco Made with Organic Grapes Cabernet Sauvignon (Columbia Valley (WA)),Cabernet Sauvignon,Snoqualmie,grandview,46.21,-119.75
US,90,45.0,Stags' Leap Winery 2012 Petite Sirah (Napa Valley),Petite Sirah,Stags' Leap Winery,napa,38.4,-122.32
US,90,38.0,Truchard 2012 Estate Cabernet Sauvignon (Carneros),Cabernet Sauvignon,Truchard,napa,38.29,-122.32
US,90,28.0,Acacia 2013 Pinot Noir (Carneros),Pinot Noir,Acacia,american canyon,38.22,-122.27
Italy,90,50.0,Baracchi Riccardo 2011 Smeriglio Riserva Syrah (Cortona),Syrah,Baracchi Riccardo,cortona,43.29,11.97
US,90,35.0,Barrister 2012 Sagemoor Cabernet Sauvignon (Columbia Valley (WA)),Cabernet Sauvignon,Barrister,spokane,47.66,-117.43
Spain,90,25.0,Bodegas Berceo 2011 Selección Crianza  (Rioja),Tempranillo Blend,Bodegas Berceo,miranda de ebro,42.58,-2.85
US,90,42.0,Bunnell 2011 ALX Syrah (Columbia Valley (WA)),Syrah,Bunnell,woodinville,47.77,-122.15
Italy,90,45.0,Castello di Neive 2011 Metodo Classico Pinot Nero (Piemonte),Pinot Nero,Castello di Neive,alba,44.73,8.11
Italy,90,70.0,Castello di Querceto 2010 Cignale Red (Colli della Toscana Centrale),Red Blend,Castello di Querceto,figline valdarno,43.6,11.38
US,90,30.0,Chateau Ste. Michelle 2012 Canoe Ridge Vineyard Cabernet Sauvignon (Horse Heaven Hills),Cabernet Sauvignon,Chateau Ste. Michelle,woodinville,47.73,-122.15
US,90,75.0,Cobb 2012 Emmaline Ann Vineyard Pinot Noir (Sonoma Coast),Pinot Noir,Cobb,windsor,38.4,-123.0
Italy,90,53.0,Comm. G. B. Burlotto 2011 Acclivi  (Barolo),Nebbiolo,Comm. G. B. Burlotto,bra,44.67,7.93
US,90,29.0,Cooper-Garrod 2012 Gravel Ridge Vineyard Chardonnay (Santa Cruz Mountains),Chardonnay,Cooper-Garrod,saratoga,37.28,-122.06
US,91,90.0,Mosquito Fleet 2011 Reserve 34 Cabernet Sauvignon (Red Mountain),Cabernet Sauvignon,Mosquito Fleet,bremerton,47.45,-122.83
Austria,91,35.0,Nittnaus Hans und Christine 2013 Nit'ana Red (Burgenland),Red Blend,Nittnaus Hans und Christine,neusiedl am see,47.89,16.92
US,91,50.0,Nottingham Cellars 2012 Ghielmetti Vineyard Micro-lot Reserve Malbec (Livermore Valley),Malbec,Nottingham Cellars,livermore,37.68,-121.72
Italy,91,35.0,Poggio Argentiera 2012 Capatosta  (Morellino di Scansano),Red Blend,Poggio Argentiera,grosseto,42.67,11.15
US,91,65.0,Pride Mountain 2012 Cabernet Franc (Sonoma County),Cabernet Franc,Pride Mountain,santa rosa,38.53,-122.56
South Africa,91,50.0,Reyneke 2013 Reserve Sauvignon Blanc (Stellenbosch),Sauvignon Blanc,Reyneke,stellenbosch,-33.96,18.74
Italy,91,43.0,Ruffino 2010 Riserva Ducale Oro Gran Selezione  (Chianti Classico),Red Blend,Ruffino,bagno a ripoli,43.7,11.33
New Zealand,91,28.0,Saint Clair 2014 Pioneer Block 20 Dillons Point Cash Block Sauvignon Blanc (Marlborough),Sauvignon Blanc,Saint Clair,seddon,-41.53,174.01
US,91,20.0,Woodinville Wine Cellars 2012 Little Bear Creek Red (Columbia Valley (WA)),Bordeaux-style Red Blend,Woodinville Wine Cellars,woodinville,47.76,-122.16
South Africa,91,40.0,Kanonkop 2012 Estate Wine Pinotage (Simonsberg-Stellenbosch),Pinotage,Kanonkop,stellenbosch,-33.86,18.86
Argentina,91,30.0,El Enemigo 2012 Bonarda (Mendoza),Bonarda,El Enemigo,lujan,-33.04,-68.72
France,91,65.0,Château d'Esclans 2013 Les Clans Rosé (Côtes de Provence),Rosé,Château d'Esclans,draguignan,43.53,6.57
France,91,17.0,Château Riotor 2014 Rosé (Côtes de Provence),Rosé,Château Riotor,orange,44.08,4.81
New Zealand,91,28.0,Cloudy Bay 2014 Sauvignon Blanc (Marlborough),Sauvignon Blanc,Cloudy Bay,havelock,-41.49,173.88
France,91,20.0,Domaine de la Bastide Blanche 2014 TwoB Rosé (Côtes de Provence),Rosé,Domaine de la Bastide Blanche,sanary-sur-mer,43.22,5.75
France,91,25.0,Domaine Sainte-Marie 2014 VieVité Extraordinaire Rosé (Côtes de Provence),Rosé,Domaine Sainte-Marie,sainte-maxime,43.2,6.43
US,91,38.0,Dry Creek Vineyard 2012 DCV2 Estate Four Clones Vineyard Zinfandel (Dry Creek Valley),Zinfandel,Dry Creek Vineyard,healdsburg,38.65,-122.92
New Zealand,91,120.0,Dry River 2013 Pinot Noir (Martinborough),Pinot Noir,Dry River,waipawa,-41.22,175.47
US,91,23.0,Dutton Estate 2013 Cohen Vineyard Dutton Ranch Sauvignon Blanc (Russian River Valley),Sauvignon Blanc,Dutton Estate,windsor,38.44,-122.87
US,91,48.0,Failla 2013 Keefer Ranch Pinot Noir (Russian River Valley),Pinot Noir,Failla,santa rosa,38.55,-122.49
US,91,32.0,Friedeman 2013 Dichotomy Pinot Noir (Russian River Valley),Pinot Noir,Friedeman,roseland,38.4,-122.82
New Zealand,91,50.0,Akarua 2012 Bannockburn Pinot Noir (Central Otago),Pinot Noir,Akarua,clyde,-45.08,169.18
New Zealand,91,30.0,Carrick 2013 Unravelled Pinot Noir (Central Otago),Pinot Noir,Carrick,clyde,-45.08,169.18
Portugal,85,8.0,Casca Wines 2015 Bote Chardonnay-Fernão Pires-Vital White (Lisboa),Portuguese White,Casca Wines,alcabideche,38.73,-9.41
France,85,15.0,Cave de Viré 2015 Grande Réserve du Président  (Mâcon-Villages),Chardonnay,Cave de Viré,macon,46.45,4.84
Portugal,85,22.0,Cortes de Cima 2015 Rosé (Alentejano),Rosé,Cortes de Cima,beja,38.16,-7.72
Argentina,85,14.0,Domaine Bousquet 2015 Cabernet Sauvignon (Tupungato),Cabernet Sauvignon,Domaine Bousquet,lujan,-33.43,-69.19
Portugal,85,8.0,Messias 2015 Santola White (Vinho Verde),Portuguese White,Messias,mealhada,40.38,-8.45
Italy,85,80.0,Paolo Manzone 2012 Meriame  (Barolo),Nebbiolo,Paolo Manzone,alba,44.62,7.99
Portugal,85,9.0,Quinta de Paços 2015 Casa de Paços Rosé (Vinho Verde),Rosé,Quinta de Paços,barcelos,41.49,-8.58
Argentina,85,17.0,Terrazas de Los Andes 2015 Reserva Torrontés (Salta),Torrontés,Terrazas de Los Andes,lujan,-33.08,-68.9
France,85,22.0,Domaine Michel Goubard 2014 Mont-Avril  (Côte Chalonnaise),Pinot Noir,Domaine Michel Goubard,chalon-sur-saone,46.75,4.7
France,85,40.0,Domaine Poulleau Père et Fils 2014  Chorey-lès-Beaune,Pinot Noir,Domaine Poulleau Père et Fils,beaune,47.0,4.78
Argentina,85,15.0,Durigutti 2014 Bonarda (Mendoza),Bonarda,Durigutti,lujan,-33.04,-68.96
Argentina,85,17.0,El Esteco 2015 Don David Reserve Torrontés (Calchaquí Valley),Torrontés,El Esteco,tucuman,-26.06,-65.96
Argentina,85,17.0,Lagarde 2013 Henry Legarde Malbec (Luján de Cuyo),Malbec,Lagarde,lujan,-33.02,-68.87
Italy,85,102.0,Marchesi di Barolo 2009 Riserva  (Barolo),Nebbiolo,Marchesi di Barolo,bra,44.61,7.94
France,85,10.0,Patriarche Père et Fils 2014  Coteaux Bourguignons,Pinot Noir-Gamay,Patriarche Père et Fils,beaune,47.03,4.84
France,85,20.0,Paul Reitz 2014  Saint-Véran,Chardonnay,Paul Reitz,beaune,47.08,4.91
US,85,33.0,Pech Merle 2013 Treborce Vineyard Zinfandel (Dry Creek Valley),Zinfandel,Pech Merle,healdsburg,38.71,-122.9
Italy,85,48.0,Punset 2011 Campo Quadro Riserva  (Barbaresco),Nebbiolo,Punset,alba,44.72,8.11
Portugal,85,12.0,Ribafreixo 2015 Pato Frio Antão Vaz (Alentejo),Antão Vaz,Ribafreixo,beja,38.2,-7.8
Australia,85,9.0,Jacob's Creek 2015 Classic Pinot Grigio (South Eastern Australia),Pinot Grigio,Jacob's Creek,gawler,-34.56,138.93
US,87,24.0,William Knuttel 2007 Pinot Noir (Sonoma Coast),Pinot Noir,William Knuttel,sonoma,38.26,-122.44
US,87,75.0,Casa Larga 2008 Fiori Delle Stelle Ice Wine Cabernet Franc (Finger Lakes),Cabernet Franc,Casa Larga,brighton,43.05,-77.43
France,87,12.0,Cave de Beblenheim 2009 Baron de Hoen Riesling (Alsace),Riesling,Cave de Beblenheim,colmar,48.16,7.33
US,87,45.0,De Loach 2008 Thornton Vineyard Pinot Noir (Sonoma Coast),Pinot Noir,De Loach,windsor,38.46,-122.82
US,87,22.0,Center of Effort 2008 Effort Chardonnay (Edna Valley),Chardonnay,Center of Effort,pismo beach,35.19,-120.59
US,87,18.0,Handley 2009 Gewürztraminer (Anderson Valley),Gewürztraminer,Handley,ukiah,39.12,-123.52
US,87,35.0,Kuleto Estate 2008 Zinfandel (Napa Valley),Zinfandel,Kuleto Estate,napa,38.5,-122.33
US,87,34.0,MacRostie 2008 Pinot Noir (Sonoma Coast),Pinot Noir,MacRostie,windsor,38.55,-122.87
US,87,70.0,"Monte De Oro 2006 Reserve, Vista del Monte Vineyard Syrah (Temecula Valley)",Syrah,Monte De Oro,temecula,33.55,-117.05
Chile,87,19.0,Ninquén 2009 Antu Cabernet Sauvignon-Carmenère (Colchagua Valley),Cabernet Sauvignon-Carmenère,Ninquén,santa cruz,-34.56,-71.4
Spain,87,14.0,Oro de Castilla 2010 Solo Verdejo (Rueda),Verdejo,Oro de Castilla,medina del campo,41.41,-4.96
Spain,87,10.0,Pablo del Villar 2010 Ipsum Verdejo-Viura (Rueda),Verdejo-Viura,Pablo del Villar,medina del campo,41.41,-4.96
US,87,45.0,Pax 2007 Cuvée Christine Syrah (North Coast),Syrah,Pax,roseland,38.4,-122.82
US,87,32.0,Robert Foley 2008 The Griffin Red (Napa Valley),Red Blend,Robert Foley,santa rosa,38.6,-122.45
Australia,87,18.0,42°S 2008 Pinot Noir (Tasmania),Pinot Noir,42°S,hobart,-42.81,147.43
Australia,87,11.0,McWilliam's Hanwood Estate 2008 Cabernet Sauvignon (South Eastern Australia),Cabernet Sauvignon,McWilliam's Hanwood Estate,griffith,-34.35,146.05
Italy,87,30.0,Paternoster 2007 Synthesi  (Aglianico del Vulture),Aglianico,Paternoster,rionero in vulture,40.94,15.69
France,92,62.0,G. H. Mumm NV Mumm de Cramant Blanc de Blancs Chardonnay (Champagne),Chardonnay,G. H. Mumm,reims,49.26,4.04
France,92,66.0,Jean Milan NV Grande Réserve Blanc de Blancs Grand Cru Brut Chardonnay (Champagne),Chardonnay,Jean Milan,epernay,48.96,4.01
Portugal,92,32.0,Monte da Penha 2005 Grande Reserva Red (Alentejo),Portuguese Red,Monte da Penha,portalegre,39.3,-7.45
US,92,70.0,Patton Valley 2010 Lorna Marie Pinot Noir (Willamette Valley),Pinot Noir,Patton Valley,forest grove,45.45,-123.16
France,92,72.0,Pierre Gimonnet et Fils 2005 Oenophile Premier Cru Blanc de Blancs Extra Brut Chardonnay (Champagne),Chardonnay,Pierre Gimonnet et Fils,epernay,49.0,3.97
Italy,92,18.0,Scubla 2008 Cràtis Verduzzo (Colli Orientali del Friuli),Verduzzo,Scubla,cividale del friuli,46.04,13.42
US,92,105.0,Adelsheim 2010 Winderlea Vineyard Pinot Noir (Dundee Hills),Pinot Noir,Adelsheim,newberg,45.34,-123.05
France,92,101.0,Bruno Paillard 2002 Assemblage Brut  (Champagne),Champagne Blend,Bruno Paillard,reims,49.21,4.02
Italy,92,50.0,Castello d'Albola 2003  Vin Santo del Chianti Classico,White Blend,Castello d'Albola,figline valdarno,43.52,11.4
Italy,92,85.0,Ferrari 2001 Giulio Ferrari Riserva del Fondatore Chardonnay (Trento),Chardonnay,Ferrari,trento,46.04,11.11
US,92,35.0,Laetitia 2008 Cuvée M Sparkling (Arroyo Grande Valley),Sparkling Blend,Laetitia,arroyo grande,35.09,-120.54
US,92,38.0,Bella 2009 Big River Ranch Zinfandel (Alexander Valley),Zinfandel,Bella,healdsburg,38.71,-122.98
Portugal,90,32.0,Quinta do Sagrado 2008 VT '08 Red (Douro),Portuguese Red,Quinta do Sagrado,porto,41.14,-8.61
Argentina,90,25.0,San Pedro de Yacochuya 2012 Red (Salta),Red Blend,San Pedro de Yacochuya,tucuman,-26.04,-66.02
US,90,125.0,St. Supéry 2013 Rutherford Estate Vineyard Cabernet Sauvignon (Rutherford),Cabernet Sauvignon,St. Supéry,sonoma,38.46,-122.41
Germany,90,29.0,Von Schleinitz 2015 Apollo Dry Riesling (Mosel),Riesling,Von Schleinitz,mulheim-karlich,50.31,7.46
US,90,17.0,Barnard Griffin 2014 Signature Cabernet Sauvignon (Columbia Valley (WA)),Cabernet Sauvignon,Barnard Griffin,richland,46.25,-119.3
US,90,85.0,Beacon Hill 2013 Chehalem Mountain Vineyard Pinot Noir (Chehalem Mountains),Pinot Noir,Beacon Hill,forest grove,45.38,-123.11
France,90,30.0,Bernard Magrez 2012 La Sérénité des Grands Chênes  (Médoc),Bordeaux-style Red Blend,Bernard Magrez,pessac,44.81,-0.65
US,90,34.0,Brian Carter Cellars 2012 Tuttorosso Red (Yakima Valley),Red Blend,Brian Carter Cellars,woodinville,47.73,-122.14
US,90,22.0,Buttonwood 2015 Grenache Blanc (Santa Ynez Valley),Grenache Blanc,Buttonwood,isla vista,34.62,-120.12
France,90,35.0,Château Corbin 2014 Divin de Corbin  (Saint-Émilion),Bordeaux-style Red Blend,Château Corbin,libourne,44.92,-0.18
France,90,45.0,Château Haut-Logat 2014  Haut-Médoc,Bordeaux-style Red Blend,Château Haut-Logat,saint-medard-en-jalles,45.24,-0.77
France,90,20.0,Château La Branne 2014  Médoc,Bordeaux-style Red Blend,Château La Branne,royan,45.38,-0.85
France,90,45.0,Château Mille-Roses 2012  Margaux,Bordeaux-style Red Blend,Château Mille-Roses,blanquefort,45.0,-0.64
US,90,20.0,Chessman 2014 Cabernet Sauvignon (Santa Ynez Valley),Cabernet Sauvignon,Chessman,rapid city,43.95,-103.52
US,90,50.0,Deerfield Ranch NV Tawny Estate Syrah (Sonoma Valley),Syrah,Deerfield Ranch,sonoma,38.41,-122.54
France,90,22.0,Domaine Franck Besson 2014 Le Griottier  (Juliénas),Gamay,Domaine Franck Besson,macon,46.23,4.69
US,90,39.0,Efeste 2013 Upright Klipsun Vineyard Merlot (Red Mountain),Merlot,Efeste,woodinville,47.77,-122.15
US,90,15.0,Firesteed 2012 Riesling (Oregon),Riesling,Firesteed,dallas,44.97,-123.22
US,90,27.0,Iron Hub 2014 Small Lot Chardonnay (Sierra Foothills),Chardonnay,Iron Hub,placerville,38.54,-120.79
Australia,90,66.0,Kooyong 2013 Farrago Chardonnay (Mornington Peninsula),Chardonnay,Kooyong,hastings,-38.32,145.1
Italy,90,32.0,Moncaro 2015 Le Vele  (Verdicchio dei Castelli di Jesi Classico),Verdicchio,Moncaro,jesi,43.53,13.1
Spain,90,20.0,Finca Constancia 2011 Parcela 23 Tempranillo (Vino de la Tierra de Castilla),Tempranillo,Finca Constancia,torrijos,39.99,-4.53
US,90,125.0,Aiken 2013 Cabernet Sauvignon (Rutherford),Cabernet Sauvignon,Aiken,sonoma,38.46,-122.42
Germany,90,16.0,Castell 2015 Castell Silvaner (Franken),Silvaner,Castell,volkach,49.74,10.35
US,86,18.0,Finn Hill 2013 Soleil Sauvignon Blanc (Wahluke Slope),Sauvignon Blanc,Finn Hill,woodinville,47.76,-122.15
US,86,22.0,Keuka Spring 2013 Pre-Emption Vineyard Gewürztraminer (Finger Lakes),Gewürztraminer,Keuka Spring,geneva,42.63,-77.07
Chile,86,12.0,La Playa 2012 Block Selection Reserve Block N. 10 Merlot (Colchagua Valley),Merlot,La Playa,santa cruz,-34.45,-71.38
France,86,15.0,Les Vins Aujoux 2013 Belle Grâce  (Beaujolais-Villages),Gamay,Les Vins Aujoux,macon,46.19,4.7
Spain,86,12.0,Navardia 2013 Made With Organic Grapes  (Rioja),Tempranillo Blend,Navardia,calahorra,42.39,-1.95
Spain,86,15.0,Pata Negra NV Brut Sparkling (Cava),Sparkling Blend,Pata Negra,ronda,36.74,-5.16
Italy,86,20.0,Ridolfi 2012  Rosso di Montalcino,Sangiovese,Ridolfi,sinalunga,43.07,11.5
US,86,28.0,Still Waters 2010 Malbec (Paso Robles),Malbec,Still Waters,atascadero,35.58,-120.59
US,86,10.0,Stomping Ground 2010 Merlot (California),Merlot,Stomping Ground,melbourne,-37.8,144.99
Italy,86,70.0,Tenuta Poggio il Castellare 2009  Brunello di Montalcino,Sangiovese,Tenuta Poggio il Castellare,sinalunga,43.1,11.54
Italy,86,28.0,Tenuta San Giorgio 2012 Ciampoleto  (Rosso di Montalcino),Sangiovese,Tenuta San Giorgio,spresiano,45.77,12.34
Chile,86,11.0,Terrapura 2012 Merlot (Curicó Valley),Merlot,Terrapura,rengo,-34.49,-70.91
France,86,30.0,Clos Troteligotte 2013 K-libre Chenin Blanc (Côtes du Lot),Chenin Blanc,Clos Troteligotte,cahors,44.39,1.34
US,86,26.0,Columbia Winery 2013 Viognier (Columbia Valley (WA)),Viognier,Columbia Winery,woodinville,47.73,-122.15
France,86,15.0,Domaine de Thulon 2013  Beaujolais-Villages,Chardonnay,Domaine de Thulon,villefranche-sur-saone,46.16,4.63
France,86,23.0,Domaine du Haut-Poncié 2013 Roche Grès  (Moulin-à-Vent),Gamay,Domaine du Haut-Poncié,macon,46.21,4.7
Italy,86,30.0,Dosio 2012  Nebbiolo d'Alba,Nebbiolo,Dosio,bra,44.63,7.93
France,86,12.0,Georges Duboeuf 2013 Flower Label  (Beaujolais),Gamay,Georges Duboeuf,macon,46.18,4.74
Spain,86,13.0,Juvé y Camps NV Cinta Púrpura Brut Reserva Sparkling (Cava),Sparkling Blend,Juvé y Camps,martorell,41.42,1.79
France,86,16.0,Manoir du Carra 2013  Beaujolais-Villages,Gamay,Manoir du Carra,villefranche-sur-saone,46.01,4.62
US,86,25.0,Maryhill 2011 Proprietor's Reserve Cabernet Franc (Columbia Valley (WA)),Cabernet Franc,Maryhill,toppenish,45.67,-120.88
Italy,90,24.0,Cottanera 2015 Bianco  (Etna),Carricante,Cottanera,randazzo,37.89,15.03
France,90,24.0,Domaine Barmès-Buecher 2014 Rosenberg Sylvaner (Alsace),Sylvaner,Domaine Barmès-Buecher,colmar,48.06,7.3
France,90,33.0,Domaine Bott-Geyl 2012 Galets Oligocène Pinot Noir (Alsace),Pinot Noir,Domaine Bott-Geyl,colmar,48.16,7.33
France,90,70.0,Domaine Faiveley 2014  Gevrey-Chambertin,Pinot Noir,Domaine Faiveley,beaune,47.14,4.95
France,90,117.0,Domaine Jacques Prieur 2014 Grèves Premier Cru  (Beaune),Chardonnay,Domaine Jacques Prieur,beaune,46.98,4.77
France,90,16.0,Domaine Roland Schmitt 2014 Grand A du Petit Léon Sylvaner (Alsace),Sylvaner,Domaine Roland Schmitt,obernai,48.58,7.46
Germany,90,30.0,Dr. H. Thanisch (Erben Thanisch) 2014 Thanisch Kabinett Riesling (Mosel),Riesling,Dr. H. Thanisch (Erben Thanisch),morbach,49.91,7.07
US,90,20.0,Easton 2014 Zinfandel (Amador County),Zinfandel,Easton,placerville,38.52,-120.82
US,90,35.0,Edna Valley Vineyard 2013 Reserve Chardonnay (Edna Valley),Chardonnay,Edna Valley Vineyard,san luis obispo,35.22,-120.61
Italy,90,25.0,Fattoria La Rivolta 2015 Taburno Fiano (Sannio),Fiano,Fattoria La Rivolta,benevento,41.17,14.71
US,90,28.0,Fess Parker 2013 Syrah (Santa Barbara County),Syrah,Fess Parker,lompoc,34.74,-120.12
US,90,45.0,Gershon Bachus 2009 Erato De Portola Trail Vineyard Cabernet Franc (Temecula Valley),Cabernet Franc,Gershon Bachus,temecula,33.52,-117.02
Italy,90,30.0,Graci 2015 Rosso  (Etna),Nerello Mascalese,Graci,randazzo,37.88,15.04
Italy,90,19.0,Tornatore 2015 Rosato (Etna),Rosato,Tornatore,randazzo,37.89,15.08
US,90,45.0,West of Temperance 2012 Rio Vista Vineyard Pinot Noir (Sta. Rita Hills),Pinot Noir,West of Temperance,santa rosa,38.47,-122.74
Germany,90,40.0,Winzergenossenschaft Mayschoss-Altenahr 2013 Trocken Früburgunder (Ahr),Früburgunder,Winzergenossenschaft Mayschoss-Altenahr,bad neuenahr-ahrweiler,50.52,6.99
Australia,90,25.0,Beresford 2014 Handpicked Grenache Rosé (McLaren Vale),Rosé,Beresford,adelaide,-35.19,138.59
US,90,40.0,Carabella 2013 Estate Pinot Noir (Chehalem Mountains),Pinot Noir,Carabella,sherwood,45.29,-122.85
US,90,42.0,Casa Dumetz 2014 Larner Grenache (Ballard Canyon),Grenache,Casa Dumetz,lompoc,34.74,-120.28
US,90,29.0,Greenwood Ridge 2013 Estate Bottled Syrah (Mendocino Ridge),Syrah,Greenwood Ridge,ukiah,39.1,-123.48
US,90,42.0,Herencia 2013 Merlot (Napa Valley),Merlot,Herencia,napa,38.31,-122.28
US,90,18.0,J. Scott Cellars 2015 Albariño (Oregon),Albariño,J. Scott Cellars,eugene,44.05,-123.17
Hungary,90,16.0,Chateau Dereszla 2014 Dry  (Tokaji),White Blend,Chateau Dereszla,tarcal,48.17,21.36
Portugal,90,40.0,Quinta do Vallado 2009 Sousão (Douro),Sousão,Quinta do Vallado,peso da regua,41.16,-7.77
Spain,90,50.0,Vall Llach 2007 Idus Red (Priorat),Red Blend,Vall Llach,cambrils,41.19,0.86
France,90,35.0,Château Bel-Air Ortet 2009  Saint-Estèphe,Bordeaux-style Red Blend,Château Bel-Air Ortet,libourne,44.93,-0.07
France,90,45.0,Château Ferrière 2009  Margaux,Bordeaux-style Red Blend,Château Ferrière,blanquefort,45.04,-0.68
Spain,90,44.0,Fuentes 2008 Coraje Red (Priorat),Red Blend,Fuentes,calahorra,42.65,-2.04
US,90,22.0,Fuse 2009 Cabernet Sauvignon (Napa Valley),Cabernet Sauvignon,Fuse,napa,38.37,-122.3
US,90,28.0,J Vineyards & Winery NV Brut Rose Sparkling (Russian River Valley),Sparkling Blend,J Vineyards & Winery,windsor,38.57,-122.84
US,90,27.0,Kokomo 2008 Petite Sirah (Dry Creek Valley),Petite Sirah,Kokomo,healdsburg,38.67,-122.93
France,90,25.0,Loup Blanc 2007 La Mère Grand Red (Minervois),Rhône-style Red Blend,Loup Blanc,narbonne,43.37,2.86
Portugal,90,60.0,Maritávora 2009 Reserva Branco White (Douro),Portuguese White,Maritávora,mogadouro,41.09,-6.82
US,90,72.0,Owen Roe 2009 Slide Mountain Vineyard Cabernet Franc (Yakima Valley),Cabernet Franc,Owen Roe,yakima,46.52,-120.45
US,90,44.0,Pacific Ridge 2009 Red Label Pinot Noir (Sta. Rita Hills),Pinot Noir,Pacific Ridge,lompoc,34.67,-120.11
US,90,28.0,Phoenix Ranch 2009 Estate Viognier (Napa Valley),Viognier,Phoenix Ranch,napa,38.34,-122.27
US,90,29.0,2nd Chance 2009 Pinot Noir (Santa Maria Valley),Pinot Noir,2nd Chance,pismo beach,35.18,-120.74
US,90,58.0,Bergevin Lane 2008 Stone Tree Vineyard Intuition Reserve Red (Columbia Valley (WA)),Bordeaux-style Red Blend,Bergevin Lane,walla walla,46.06,-118.35
Australia,90,15.0,Hungerford Hill 2008 Heavy Metal Shiraz (South Eastern Australia),Shiraz,Hungerford Hill,cessnock,-32.78,151.34
Italy,90,29.0,Jacopo Biondi-Santi 2008 Castello di Montepò  (Morellino di Scansano),Sangiovese,Jacopo Biondi-Santi,sinalunga,43.06,11.49
Italy,90,45.0,Le Buche 2006 Giuseppe Olivi Memento Red (Toscana),Red Blend,Le Buche,chiusi,43.02,11.87
US,90,70.0,Leonesse Cellars 2007 Signature Selection Syrah (Temecula Valley),Syrah,Leonesse Cellars,temecula,33.52,-117.02
US,90,39.0,Market Vineyards 2008 Dividend Syrah (Columbia Valley (WA)),Syrah,Market Vineyards,woodinville,47.73,-122.14
Italy,90,28.0,Mazzei 2009 Fonterutoli  (Chianti Classico),Sangiovese,Mazzei,siena,43.44,11.3
Spain,90,48.0,Morlanda 2007 Criança Red (Priorat),Red Blend,Morlanda,cambrils,41.14,0.8
US,87,22.0,Becker 2014 Reserve Bingham Vineyard Roussanne (Texas High Plains),Roussanne,Becker,fredericksburg,30.2,-98.71
US,87,30.0,Brennan 2014 Super Nero Nero d'Avola (Texas),Nero d'Avola,Brennan,brownwood,31.89,-98.6
Portugal,87,30.0,Casa de Vilacetinho 2013 Bruto Avesso (Vinho Verde),Avesso,Casa de Vilacetinho,perafita,41.08,-8.25
Italy,87,39.0,Cascina Bruciata 2013  Barbaresco,Nebbiolo,Cascina Bruciata,alba,44.71,8.08
Argentina,87,30.0,Antucura 2011 Grand Vin Red (Vista Flores),Bordeaux-style Red Blend,Antucura,lujan,-33.66,-69.13
France,87,23.0,Frédéric Brouca 2013 Samsó Seulle Cinsault (Vin de France),Cinsault,Frédéric Brouca,beziers,43.57,3.19
US,87,18.0,Fullerton 2015 Three Otters Pinot Noir Rosé (Willamette Valley),Rosé,Fullerton,portland,45.53,-122.69
Argentina,87,20.0,Graffigna 2012 Grand Reserve Malbec (San Juan),Malbec,Graffigna,san juan,-31.52,-68.55
US,87,25.0,Coelho 2014 Atração Pinot Noir (Willamette Valley),Pinot Noir,Coelho,keizer,45.12,-123.21
Italy,87,50.0,Deltetto 2012 Bussia  (Barolo),Nebbiolo,Deltetto,alba,44.79,8.0
Italy,87,50.0,Diego Conterno 2012 Ginestra  (Barolo),Nebbiolo,Diego Conterno,alba,44.58,7.97
Portugal,87,9.0,Falua 2015 Conde Vimioso Colheita Seleccionada Branco White (Tejo),Portuguese White,Falua,almeirim,39.19,-8.62
Portugal,87,14.0,Fiuza 2015 Red (Tejo),Tinta Miúda,Fiuza,almeirim,39.21,-8.63
Australia,87,18.0,Sidewood 2014 Sauvignon Blanc (Adelaide Hills),Sauvignon Blanc,Sidewood,mount barker,-35.01,138.78
Portugal,87,12.0,Aveleda NV Casal Garcia Rosé Sparkling (Vinho Verde),Portuguese Sparkling,Aveleda,gemunde,41.28,-8.68
Italy,87,60.0,Battaglio 2013  Barbaresco,Nebbiolo,Battaglio,jesi,43.48,13.08
US,87,20.0,Bella Grace 2013 Estate Zinfandel (Amador County),Zinfandel,Bella Grace,cameron park,38.39,-120.8
Argentina,87,15.0,Bodega Calle 2014 Alberti 154 Malbec (Mendoza),Malbec,Bodega Calle,lujan,-33.02,-68.88
Italy,87,35.0,Borgogno F.lli Serio e Battista 2012  Barolo,Nebbiolo,Borgogno F.lli Serio e Battista,alba,44.62,7.95
France,87,14.0,Château les Petits Arnauds 2014 Tradition  (Blaye Côtes de Bordeaux),Bordeaux-style Red Blend,Château les Petits Arnauds,blanquefort,45.13,-0.63
France,87,16.0,Château Mougneaux 2014  Bordeaux Supérieur,Bordeaux-style Red Blend,Château Mougneaux,libourne,45.02,-0.13
France,87,15.0,Château Saintongey 2014 Vieilles Vignes  (Bordeaux),Bordeaux-style Red Blend,Château Saintongey,floirac,44.65,-0.32
France,87,14.0,Château Ségonzac 2014 Vieilles Vignes  (Blaye Côtes de Bordeaux),Bordeaux-style Red Blend,Château Ségonzac,blanquefort,45.15,-0.66
Spain,87,15.0,Covila 2013 II Crianza  (Rioja),Tempranillo,Covila,logrono,42.49,-2.58
US,87,55.0,Cuda Ridge Wines 2013 Melange d'Amis Reserve Red (Livermore Valley),Bordeaux-style Red Blend,Cuda Ridge Wines,livermore,37.65,-121.77
France,87,38.0,Duménil NV Grande Réserve Premier Cru Brut  (Champagne),Champagne Blend,Duménil,tinqueux,49.2,3.96
Spain,87,15.0,Ego Bodegas 2014 Goru Verde Monastrell (Jumilla),Monastrell,Ego Bodegas,jumilla,38.58,-1.27
US,87,34.0,Ektimo Vineyards 2014 Pinot Noir (Russian River Valley),Pinot Noir,Ektimo Vineyards,windsor,38.45,-122.88
Spain,87,18.0,Finca del Marquesado 2013 Crianza  (Rioja),Tempranillo Blend,Finca del Marquesado,talavera de la reina,39.86,-4.61
US,87,27.0,Folin Cellars 2015 Estate Viognier (Rogue Valley),Viognier,Folin Cellars,central point,42.51,-122.99
US,87,17.0,Francis Coppola 2014 Director's Chardonnay (Sonoma County),Chardonnay,Francis Coppola,healdsburg,38.68,-122.89
US,87,65.0,Frank Family 2013 Reserve Winston Hill Vineyard Sangiovese (Rutherford),Sangiovese,Frank Family,santa rosa,38.56,-122.52
Portugal,87,13.0,Real Companhia Velha 2014 Evel Tinto Red (Douro),Portuguese Red,Real Companhia Velha,oliveira do douro,41.13,-8.6
Italy,87,23.0,Travaglini 2014 Nebbiolo (Coste della Sesia),Nebbiolo,Travaglini,borgomanero,45.62,8.36
US,87,32.0,Yorkville Cellars 2013 Rennie Vineyard Organic Grapes Petit Verdot (Yorkville Highlands),Petit Verdot,Yorkville Cellars,ukiah,38.91,-123.23
Spain,87,16.0,Agustí Torelló Mata 2015 XIC Xarel-lo (Penedès),Xarel-lo,Agustí Torelló Mata,martorell,41.44,1.77
US,87,38.0,Amalie Robert 2012 i Pinot Noir (Willamette Valley),Pinot Noir,Amalie Robert,dallas,44.88,-123.3
Italy,87,50.0,Bersano 2012 Nirvasco  (Barolo),Nebbiolo,Bersano,nizza monferrato,44.77,8.36
Italy,87,30.0,Cantine di Marzo NV Anni Venti Metodo Classico  (Greco di Tufo),Greco,Cantine di Marzo,san giorgio del sannio,41.01,14.82
US,87,24.0,Carica 2015 Ritchie Vineyard Sauvignon Blanc (Russian River Valley),Sauvignon Blanc,Carica,richmond,37.91,-122.36
Spain,87,18.0,Ignacio Marín 2015 Wine Wings Garnacha Rosé (Cariñena),Rosé,Ignacio Marín,calatayud,41.34,-1.22
France,87,20.0,Château de Bel 2014  Bordeaux Supérieur,Bordeaux-style Red Blend,Château de Bel,begles,44.65,-0.49
France,85,40.0,Vranken NV Demoiselle Tête de Cuvée Brut  (Champagne),Champagne Blend,Vranken,epernay,49.07,4.14
Italy,85,17.0,Fabiano 2006 Argillaia  (Lugana),Trebbiano,Fabiano,sona,45.45,10.84
Italy,85,48.0,Vinosia 2006 Vecchie Vigne  (Primitivo di Manduria),Primitivo,Vinosia,ariano irpino,40.97,15.03
New Zealand,85,9.0,Kono 2008 Sauvignon Blanc (Marlborough),Sauvignon Blanc,Kono,seddon,-41.66,174.03
Chile,85,10.0,Santa Ema 2008 Selected Terroir Chardonnay (Casablanca Valley),Chardonnay,Santa Ema,talagante,-33.76,-70.87
Chile,85,9.0,Morandé 2008 Pionero Carmenère (Maipo Valley),Carmenère,Morandé,rengo,-34.47,-70.9
US,85,19.0,One Hope 2006 Cabernet Sauvignon (California),Cabernet Sauvignon,One Hope,el segundo,33.92,-118.4
France,85,15.0,Pommery NV Pop Rosé Extra Dry  (Champagne),Champagne Blend,Pommery,reims,49.24,4.05
US,85,23.0,Saddleback 2008 Viognier (Clarksburg),Viognier,Saddleback,sonoma,38.45,-122.39
US,85,35.0,Alexander Valley Vineyards 2006 Alexander School Reserve Big Barrel Syrah (Alexander Valley),Syrah,Alexander Valley Vineyards,healdsburg,38.66,-122.79
US,85,30.0,Covington 2006 Rough House Red Red (Walla Walla Valley (WA)),Red Blend,Covington,woodinville,47.76,-122.15
US,85,17.0,Kendall-Jackson 2008 Summation Vintner's Reserve White (California),White Blend,Kendall-Jackson,windsor,38.51,-122.77
US,85,16.0,Ledgewood Creek 2007 Estate Grown Viognier (Suisun Valley),Viognier,Ledgewood Creek,fairfield,38.27,-122.1
US,85,15.0,X 2008 White X White (North Coast),White Blend,X,napa,38.3,-122.29
France,85,10.0,Château Lamothe-Vincent 2008 Sauvignon  (Bordeaux Blanc),Sauvignon Blanc,Château Lamothe-Vincent,libourne,44.71,-0.2
France,85,10.0,Yvon Mau 2007 Premius Bordeaux Sauvignon  (Bordeaux Blanc),Sauvignon Blanc,Yvon Mau,marmande,44.59,-0.09
Italy,85,16.0,Bellenda 2005 Col di Luna Cabernet Sauvignon (Piave),Cabernet Sauvignon,Bellenda,vittorio veneto,45.95,12.29
US,85,25.0,Breggo 2008 Gewürztraminer (Anderson Valley),Gewürztraminer,Breggo,ukiah,39.05,-123.41
Romania,85,12.0,Byzantium 2005 Rosso di Valachia Red (Dealu Mare),Red Blend,Byzantium,sutesti,44.64,24.21
Argentina,88,20.0,Pascual Toso 2007 Reserve Las Barrancas Vineyards Cabernet Sauvignon (Mendoza),Cabernet Sauvignon,Pascual Toso,lujan,-33.11,-68.69
Australia,88,25.0,Sieber Rd 2007 Viognier (Barossa Valley),Viognier,Sieber Rd,gawler,-34.51,138.89
US,88,20.0,Lachini 2007 Pinot Gris (Oregon),Pinot Gris,Lachini,woodinville,47.73,-122.14
Spain,88,53.0,Mauro 2005 Red (Vino de la Tierra de Castilla y León),Tempranillo Blend,Mauro,laguna de duero,41.59,-4.58
France,88,14.0,Domaine des Terrisses 2006 Grande Tradition Red (Gaillac),Red Blend,Domaine des Terrisses,gaillac,43.93,1.87
France,88,22.0,Fournier Père et Fils 2006 Les Belles Vignes  (Sancerre),Sauvignon Blanc,Fournier Père et Fils,gien,47.33,2.84
Italy,88,26.0,Benanti 2006 Edèlmio White (Sicilia),White Blend,Benanti,pedara,37.62,15.1
US,88,18.0,The Four Graces 2007 Pinot Gris (Dundee Hills),Pinot Gris,The Four Graces,newberg,45.29,-123.0
US,88,24.0,Arcane Cellars 2006 Cabernet Sauvignon (Rogue Valley),Cabernet Sauvignon,Arcane Cellars,keizer,45.1,-123.05
US,88,60.0,Benton-Lane 2006 First Class Pinot Noir (Willamette Valley),Pinot Noir,Benton-Lane,corvallis,44.29,-123.3
France,88,26.0,Château Puy-Servain 2003 Vieilles Vignes  (Montravel),Bordeaux-style Red Blend,Château Puy-Servain,bergerac,44.87,0.21
France,88,16.0,Domaine Philippe Portier 2007  Quincy,Sauvignon Blanc,Domaine Philippe Portier,vierzon,47.15,2.14
Chile,88,18.0,Tarapaca 2006 Gran Reserva Cabernet Sauvignon (Maipo Valley),Cabernet Sauvignon,Tarapaca,iquique,-20.43,-70.16
US,88,16.0,Hunt Country Vineyards 2007 Pinot Gris (Finger Lakes),Pinot Gris,Hunt Country Vineyards,canandaigua,42.6,-77.17
US,88,42.0,Brecon Estate 2012 Forty Two Red (Paso Robles),Rhône-style Red Blend,Brecon Estate,atascadero,35.6,-120.83
US,88,48.0,Callaway 2010 Profonde Winemaker's Reserve Red (Temecula Valley),Red Blend,Callaway,temecula,33.52,-117.09
Italy,88,22.0,Casa di Grazia 2011 Gradiva Collectio Nero d'Avola (Sicilia),Nero d'Avola,Casa di Grazia,gela,37.03,14.33
France,88,20.0,Ruhlmann 2013 Vieilles Vignes Gewurztraminer (Alsace),Gewürztraminer,Ruhlmann,selestat,48.32,7.43
US,88,125.0,Spring Mountain Vineyard 2011 Elivette Red (Napa Valley),Bordeaux-style Red Blend,Spring Mountain Vineyard,sonoma,38.51,-122.49
US,88,14.0,Stanton Vineyard 2013 Pinot Gris (Willamette Valley),Pinot Gris,Stanton Vineyard,sonoma,38.5,-122.46
Italy,88,27.0,Cusumano 2013 Cubia Tenuta Ficuzza Insolia (Sicilia),Insolia,Cusumano,partinico,38.06,13.1
Israel,88,25.0,Dalton 2013 Alma Semillon-Viognier-Pinot Gris White (Galilee),White Blend,Dalton,jish,33.03,35.48
US,88,42.0,Dragonette 2012 Vogelzang Sauvignon Blanc (Happy Canyon of Santa Barbara),Sauvignon Blanc,Dragonette,lompoc,34.67,-120.11
Spain,88,18.0,Gorka Izagirre 2013 White (Bizkaiko Txakolina),White Blend,Gorka Izagirre,arrigorriaga,43.26,-2.81
US,88,60.0,Grgich Hills 2012 Miljenko's Selection Chardonnay (Carneros),Chardonnay,Grgich Hills,sonoma,38.47,-122.43
Spain,88,28.0,Linaje Garsea 2010 Crianza  (Ribera del Duero),Tempranillo,Linaje Garsea,aranda de duero,41.66,-3.74
New Zealand,88,16.0,Omaka Springs 2013 Pinot Gris (Marlborough),Pinot Gris,Omaka Springs,havelock,-41.55,173.82
US,88,22.0,Ventana 2013 Chardonnay (Arroyo Seco),Chardonnay,Ventana,soledad,36.36,-121.31
France,88,10.0,Vieil Armand 2010 Clos de la Tourelle Château Ollwiller Pinot Blanc (Alsace),Pinot Blanc,Vieil Armand,guebwiller,47.87,7.22
Italy,88,12.0,Viticultori Associati Canicatti 2012 Aquilae Nero d'Avola (Terre Siciliane),Nero d'Avola,Viticultori Associati Canicatti,naro,37.36,13.78
Italy,88,28.0,Vivera 2010 Salisire Bianco  (Etna),Carricante,Vivera,mascali,37.83,15.14
New Zealand,87,20.0,Mills Reef 2012 Gimblett Gravels Reserve Merlot-Malbec (Hawke's Bay),Merlot-Malbec,Mills Reef,tauranga,-37.7,176.11
Spain,87,15.0,Pazo Torrado 2013 Albariño (Rías Baixas),Albariño,Pazo Torrado,cambados,42.52,-8.81
Argentina,87,15.0,Sur de los Andes 2012 Clásico Malbec (Mendoza),Malbec,Sur de los Andes,lujan,-33.07,-68.88
New Zealand,87,70.0,Babich 2011 The Patriarch Premium Red (Hawke's Bay),Bordeaux-style Red Blend,Babich,waitakere,-36.88,174.6
Austria,85,20.0,Setzer 2007 Vesper Grüner Veltliner (Niederösterreich),Grüner Veltliner,Setzer,langenlois,48.5,15.83
Italy,85,17.0,Tenuta Luisa 2007 Rive Alte Pinot Grigio (Isonzo del Friuli),Pinot Grigio,Tenuta Luisa,ronchi dei legionari,45.92,13.48
US,85,24.0,Honeywood Winery 2006 Pinot Noir (Willamette Valley),Pinot Noir,Honeywood Winery,salem,44.93,-123.03
Italy,85,28.0,I Clivi 2004 Bianco degli Arzillari White (Colli Orientali del Friuli),White Blend,I Clivi,cividale del friuli,46.0,13.46
Spain,85,25.0,Marqués de Vizhoja 2007 Señor da Folla Verde White (Rías Baixas),White Blend,Marqués de Vizhoja,mozelos,42.13,-8.26
US,85,12.0,Estancia 2007 Pinot Grigio (California),Pinot Grigio,Estancia,soledad,36.43,-121.31
Spain,85,30.0,Finca La Emperatriz 2000 Reserva  (Rioja),Tempranillo Blend,Finca La Emperatriz,miranda de ebro,42.5,-2.94
Austria,85,10.0,Graf Hardegg 2007 Veltlinsky Grüner Veltliner (Niederösterreich),Grüner Veltliner,Graf Hardegg,dobsice,48.72,16.18
Chile,85,11.0,Botalcura 2006 El Delirio Reserve Syrah-Malbec Red (Central Valley),Red Blend,Botalcura,talca,-35.41,-71.64
US,85,16.0,Bridgeway 2004 Syrah (Central Coast),Syrah,Bridgeway,tiburon,37.86,-122.48
France,85,11.0,Château Bélingard 2005  Monbazillac,Bordeaux-style White Blend,Château Bélingard,bergerac,44.8,0.43
France,85,25.0,Clos Teddi 2007 Rosé Red (Patrimonio),Red Blend,Clos Teddi,bastia,42.7,9.36
South Africa,85,20.0,Ormonde 2005 Cabernet Sauvignon-Merlot (Darling),Cabernet Sauvignon-Merlot,Ormonde,atlantis,-33.38,18.37
Portugal,94,50.0,Sandeman 2015 Quinta do Seixo Vintage  (Port),Port,Sandeman,porto,41.14,-8.61
US,94,38.0,Scott Harvey 2012 Old Vine Reserve Zinfandel (Amador County),Zinfandel,Scott Harvey,placerville,38.52,-120.82
US,94,100.0,Trisaetum 2014 Family Reserve MMXIV Pinot Noir (Willamette Valley),Pinot Noir,Trisaetum,newberg,45.35,-123.08
US,94,95.0,Bergström 2015 Bergström Vineyard Pinot Noir (Dundee Hills),Pinot Noir,Bergström,newberg,45.35,-123.05
Italy,94,57.0,Mauro Veglio 2013 Castelletto  (Barolo),Nebbiolo,Mauro Veglio,alba,44.64,7.95
Portugal,94,150.0,Poças 2014 Símbolo Red (Douro),Portuguese Red,Poças,vila nova de gaia,41.13,-8.62
Portugal,94,78.0,Quinta do Vesuvio 2015 Vintage  (Port),Port,Quinta do Vesuvio,custoias,41.14,-7.26
Australia,94,100.0,Schild Estate 2013 Moorooroo Shiraz (Barossa Valley),Shiraz,Schild Estate,gawler,-34.59,138.86
US,94,52.0,Shafer 2015 Red Shoulder Ranch Chardonnay (Carneros),Chardonnay,Shafer,napa,38.42,-122.33
France,94,112.0,Alphonse Mellot 2014 En Grands Champs  (Sancerre),Pinot Noir,Alphonse Mellot,gien,47.33,2.84
Italy,94,180.0,Ascheri 2013 Ascheri  (Barolo),Nebbiolo,Ascheri,bra,44.69,7.85
US,94,85.0,Big Table Farm 2015 Elusive Queen Chardonnay (Willamette Valley),Chardonnay,Big Table Farm,forest grove,45.41,-123.2
US,94,120.0,Horsepower 2014 The Tribe Vineyard Syrah (Walla Walla Valley (OR)),Syrah,Horsepower,walla walla,46.08,-118.31
France,94,120.0,Château de Parnay 2014 La Coulée du Méridien  (Saumur-Champigny),Cabernet Franc,Château de Parnay,saumur,47.23,0.0
US,94,38.0,Tres Sabores 2014 Perspective Estate Zinfandel (Rutherford),Zinfandel,Tres Sabores,sonoma,38.46,-122.44
US,94,58.0,Williams Selyem 2015 Terra De Promissio Vineyard Pinot Noir (Sonoma Coast),Pinot Noir,Williams Selyem,windsor,38.52,-122.87
US,94,85.0,Cayuse 2014 Cailloux Vineyard Syrah (Walla Walla Valley (OR)),Syrah,Cayuse,walla walla,46.07,-118.34
US,94,80.0,Chappellet 2013 Cabernet Franc (Napa Valley),Cabernet Franc,Chappellet,napa,38.48,-122.34
Portugal,94,60.0,Churchill's 2015 Quinta da Gricha Vintage  (Port),Port,Churchill's,vila nova de gaia,41.14,-8.62
US,94,50.0,Dion 2014 Old Vines Pinot Noir (Chehalem Mountains),Pinot Noir,Dion,hillsboro,45.46,-123.02
France,94,60.0,Domaine Bernard Fleuriet et Fils 2015 Anthocyane  (Sancerre),Pinot Noir,Domaine Bernard Fleuriet et Fils,gien,47.33,2.77
US,94,60.0,Drouhin Oregon Roserock 2014 Zéphirine Pinot Noir (Eola-Amity Hills),Pinot Noir,Drouhin Oregon Roserock,newberg,45.27,-123.06
Chile,90,25.0,Santa Alicia 2012 Millantu Red (Maipo Valley),Red Blend,Santa Alicia,san bernardo,-33.67,-70.54
US,90,19.0,Rutherford Ranch 2013 Chardonnay (Napa Valley),Chardonnay,Rutherford Ranch,sonoma,38.49,-122.41
US,90,45.0,Landmark 2012 Charles Heintz Vineyard Chardonnay (Sonoma Coast),Chardonnay,Landmark,santa rosa,38.43,-122.56
US,90,13.0,Mercer 2013 Sauvignon Blanc (Yakima Valley),Sauvignon Blanc,Mercer,white center,47.55,-122.31
France,90,15.0,Michel Gassier 2012 Les Piliers Syrah (Costières de Nîmes),Syrah,Michel Gassier,nimes,43.79,4.37
Italy,90,22.0,Nada Fiorenzo 2011 Nebbiolo (Langhe),Nebbiolo,Nada Fiorenzo,alba,44.7,8.07
US,90,35.0,Barrage Cellars 2010 Outcast Cabernet Franc (Yakima Valley),Cabernet Franc,Barrage Cellars,woodinville,47.77,-122.15
US,90,38.0,Bonny Doon 2010 Le Cigare Volant Red (Central Coast),Rhône-style Red Blend,Bonny Doon,scotts valley,37.04,-122.15
Spain,90,25.0,Castellroig 2010 Reserva Brut Nature Sparkling (Cava),Sparkling Blend,Castellroig,sant pere de ribes,41.42,1.77
France,90,17.0,Château d'Or et de Gueules 2010 Les Cimels Red (Costières de Nîmes),Rhône-style Red Blend,Château d'Or et de Gueules,saint-gilles,43.68,4.38
Italy,90,38.0,Citille di Sopra 2012  Rosso di Montalcino,Sangiovese,Citille di Sopra,sinalunga,43.1,11.57
US,90,56.0,Daou 2012 Reserve Zinfandel (Paso Robles),Zinfandel,Daou,atascadero,35.64,-120.78
Italy,90,18.0,Dei 2012  Rosso di Montepulciano,Red Blend,Dei,montepulciano,43.09,11.81
France,90,32.0,Domaine de Gensac 2011 Quadrille White (Gers),White Blend,Domaine de Gensac,agen,43.98,0.43
France,90,24.0,Domaine Rolet Père et Fils 2008 Brut Sparkling (Crémant de Jura),Sparkling Blend,Domaine Rolet Père et Fils,champagnole,46.92,5.75
US,84,16.0,Three Brothers 2014 Zero Degree Dry Riesling (Seneca Lake),Riesling,Three Brothers,geneva,42.82,-76.92
US,84,40.0,Wilridge 2014 Dessert Wine Estate Wilridge Vineyard Pinot Gris (Naches Heights),Pinot Gris,Wilridge,seattle,47.61,-122.29
US,84,38.0,Belden Barns 2013 Estate Grown Pinot Noir (Sonoma Mountain),Pinot Noir,Belden Barns,rohnert park,38.37,-122.6
France,84,20.0,Château du Retout 2013  Haut-Médoc,Bordeaux-style Red Blend,Château du Retout,saint-medard-en-jalles,45.1,-0.73
France,84,18.0,Château la Gravette Lacombe 2013  Médoc,Bordeaux-style Red Blend,Château la Gravette Lacombe,royan,45.33,-0.89
France,84,14.0,Château les Joyeuses 2014  Bordeaux,Bordeaux-style Red Blend,Château les Joyeuses,cognac,45.73,-0.4
France,84,15.0,Château Vrai Caillou 2013  Bordeaux Supérieur,Bordeaux-style Red Blend,Château Vrai Caillou,pessac,44.82,-0.64
Chile,84,11.0,Concha y Toro 2015 Reserva Casillero del Diablo Sauvignon Blanc (Chile),Sauvignon Blanc,Concha y Toro,san bernardo,-33.64,-70.57
Italy,84,11.0,Cantine Grasso 2014 Nero d'Avola (Terre Siciliane),Nero d'Avola,Cantine Grasso,milazzo,38.21,15.24
US,84,100.0,Madrigal 2012 Las Viñas del Señor Cabernet Sauvignon (Napa Valley),Cabernet Sauvignon,Madrigal,santa rosa,38.55,-122.52
US,84,25.0,Millbrook 2013 Proprietor's Special Reserve Chardonnay (Hudson River Region),Chardonnay,Millbrook,arlington,41.84,-73.68
Chile,84,18.0,Santa Rita 2014 Medalla Real Gran Reserva Chardonnay (Leyda Valley),Chardonnay,Santa Rita,buin,-33.72,-70.68
US,84,28.0,Spicy Vines 2011 Sacrlet's Flirtation Zinfandel (Mendocino),Zinfandel,Spicy Vines,healdsburg,38.61,-122.87
France,83,12.0,Les Vignerons Réunis de Monségur 2014 La Tour du Gouverneur  (Bordeaux),Bordeaux-style Red Blend,Les Vignerons Réunis de Monségur,marmande,44.66,0.07
France,83,30.0,Château les Lattes 2013  Médoc,Bordeaux-style Red Blend,Château les Lattes,versailles,48.8,2.12
US,83,45.0,Ports of New York NV Meleau White Specialty Wine White (New York),White Blend,Ports of New York,ithaca,42.44,-76.52
US,87,24.0,Whitman Cellars 2004 Narcissa Red Red (Columbia Valley (WA)),Red Blend,Whitman Cellars,walla walla,46.07,-118.34
Austria,87,15.0,Winkler-Hermaden 2007 Steierische Klassik Weissburgunder (Südoststeiermark),Weissburgunder,Winkler-Hermaden,feldbach,46.89,15.98
Australia,87,19.0,Fire Block 2004 Old Vine Shiraz (Clare Valley),Shiraz,Fire Block,sydney,-33.85,150.88
Greece,87,15.0,Palivou 2006 White Fox Roditis (Corinth),Roditis,Palivou,nemea,37.81,22.69
Austria,87,23.0,Felsner 2007 Rohrendorfer Leithen Alte Reben Grüner Veltliner (Kremstal),Grüner Veltliner,Felsner,traismauer,48.41,15.72
Greece,87,13.0,Tsantali 2006 Ambelonas at Agios Pavlos White (Halkidiki),White Blend,Tsantali,lakkoma,40.37,23.05
Italy,86,17.0,Bisol NV Desiderio Jeio Brut  (Prosecco del Veneto),Prosecco,Bisol,valdobbiadene,45.9,12.04
Italy,86,15.0,Carmina NV Extra Dry  (Prosecco di Conegliano),Prosecco,Carmina,conegliano,45.91,12.3
Italy,86,20.0,Carpenè Malvolti NV Cuvée Oro Dry  (Prosecco di Conegliano),Prosecco,Carpenè Malvolti,conegliano,45.89,12.3
Italy,86,19.0,Col Saliz NV Servo Suo Dry Vendemmia Tardiva  (Prosecco di Valdobbiadene),Prosecco,Col Saliz,pieve di soligo,45.91,12.22
US,86,18.0,Wellington 2004 Estate Merlot (Sonoma Valley),Merlot,Wellington,sonoma,38.39,-122.53
Italy,86,13.0,Zonin NV Special Cuvée Brut  (Prosecco del Veneto),Prosecco,Zonin,arzignano,45.46,11.34
US,86,26.0,Lost River 2005 Cedarosa Red (Columbia Valley (WA)),Bordeaux-style Red Blend,Lost River,osoyoos,48.48,-120.19
Italy,86,13.0,Toffoli 2007 Millesimato Extra Brut  (Prosecco del Veneto),Prosecco,Toffoli,pieve di soligo,45.92,12.21
Argentina,86,17.0,Trapiche 2007 Broquel Chardonnay (Mendoza),Chardonnay,Trapiche,mendoza,-32.97,-68.75
Germany,86,20.0,Louis Guntrum 2006 Niersteiner Bergkirche Kabinett Riesling (Rheinhessen),Riesling,Louis Guntrum,trebur,49.87,8.35
US,86,48.0,Pali 2006 Durell Vineyard Pinot Noir (Sonoma Coast),Pinot Noir,Pali,santa barbara,34.42,-119.69
Argentina,86,12.0,Rutini 2006 Trumpeter Merlot (Mendoza),Merlot,Rutini,lujan,-33.45,-69.21
Austria,86,12.0,Schloss Halbturn 2006 Koenigsegg Velt. 1 Grüner Veltliner (Burgenland),Grüner Veltliner,Schloss Halbturn,neusiedl am see,47.87,16.97
Argentina,88,19.0,Zolo 2014 Reserve Estate Grown Cabernet Sauvignon (Valle de Uco),Cabernet Sauvignon,Zolo,lujan,-33.16,-68.9
France,88,10.0,Bailly-Lapierre NV La Burgondie Rosé Brut  (Crémant de Bourgogne),Sparkling Blend,Bailly-Lapierre,auxerre,47.72,3.63
US,88,26.0,Balo 2014 Pinot Gris (Anderson Valley),Pinot Gris,Balo,ukiah,39.06,-123.43
Italy,88,49.0,Boasso 2012 Margheria  (Barolo),Nebbiolo,Boasso,alba,44.62,7.99
Italy,88,50.0,Broccardo 2012 I Tre Pais  (Barolo),Nebbiolo,Broccardo,alba,44.59,7.95
Portugal,88,19.0,Casa Agricola Santos Jorge 2012 Herdade dos Machados Reserva Red (Alentejo),Portuguese Red,Casa Agricola Santos Jorge,lisbon,38.75,-9.14
France,88,14.0,Cave des Vignerons de Buxy 2014  Mâcon-Villages,Chardonnay,Cave des Vignerons de Buxy,chalon-sur-saone,46.61,4.66
Turkey,88,20.0,Chamlija 2014 Papaskarasi (Thrace),Papaskarasi,Chamlija,luleburgaz,41.3,27.55
France,88,28.0,Château de Fuissé 2014  Saint-Véran,Chardonnay,Château de Fuissé,macon,46.28,4.74
France,88,70.0,Château de Santenay 2014  Chassagne-Montrachet,Chardonnay,Château de Santenay,beaune,46.91,4.69
France,88,40.0,Christophe Cordier 2014 Vers Cras  (Pouilly-Fuissé),Chardonnay,Christophe Cordier,macon,46.27,4.75
France,88,10.0,Famille Laplace 2015 Aramis Rouge Tannat-Syrah Tannat-Syrah (Vin de France),Tannat-Syrah,Famille Laplace,pau,43.57,-0.12
Argentina,88,16.0,Finca Lalande 2015 Malbec (Mendoza),Malbec,Finca Lalande,san martin,-33.1,-68.67
Argentina,87,40.0,Altos Las Hormigas 2013 Appellation Gualtallary Malbec (Mendoza),Malbec,Altos Las Hormigas,rivadavia,-33.2,-68.66
US,87,35.0,Aubichon Cellars 2014 Chardonnay (Willamette Valley),Chardonnay,Aubichon Cellars,newberg,45.27,-123.02
Australia,87,25.0,Ben Haines 2015 B Minor Marsanne-Roussanne (Goulburn Valley),Marsanne-Roussanne,Ben Haines,ararat,-37.31,143.15
France,87,32.0,Bouchard Père & Fils 2014  Pouilly-Fuissé,Chardonnay,Bouchard Père & Fils,beaune,47.02,4.84
US,87,14.0,Cambridge & Sunset 2014 California Series Zinfandel (California),Zinfandel,Cambridge & Sunset,cambridge,52.21,0.12
Italy,87,75.0,Cascina Chicco 2012 Rocche di Castelletto  (Barolo),Nebbiolo,Cascina Chicco,alba,44.79,7.98
Portugal,93,55.0,Quinta da Foz 2016 Reserva Red (Douro),Portuguese Red,Quinta da Foz,vilela,41.19,-7.55
US,93,115.0,Tamber Bey 2014 Vermejo Deux Chevaux Vineyard Red (Yountville),Bordeaux-style Red Blend,Tamber Bey,santa rosa,38.6,-122.6
